{"branches":[{"id":"1","Transit":"1","region":"WOR","name":"LONDON CLARENCE","address":"220 Dundas St.","city":"LONDON","prov":"ON","postal":"N6A1H3","lat":"42.984519","lon":"-81.247389","monday":"12:35-12:45","tuesday":"12:35-12:45","wednesday":"12:35-12:45","thursday":"12:35-12:45","friday":"12:35-12:45","saturday":"12:35-12:45","sunday":"12:35-12:45","branch":"1"},{"id":"2","Transit":"2","region":"WOR","name":"ST THOMAS","address":"378 Talbot St.","city":"ST THOMAS","prov":"ON","postal":"N5P1B8","lat":"42.7788049","lon":"-81.1982134","monday":"12:35-12:45","tuesday":"12:35-12:45","wednesday":"12:35-12:45","thursday":"12:35-12:45","friday":"12:35-12:45","saturday":"12:35-12:45","sunday":"12:35-12:45","branch":"2"},{"id":"3","Transit":"8","region":"WOR","name":"LONDON LYLE","address":"687 Dundas St.","city":"LONDON","prov":"ON","postal":"N5W2Z5","lat":"42.9896668","lon":"-81.228731","monday":"12:35-12:45","tuesday":"12:35-12:45","wednesday":"12:35-12:45","thursday":"12:35-12:45","friday":"12:35-12:45","saturday":"12:35-12:45","sunday":"12:35-12:45","branch":"3"},{"id":"4","Transit":"10","region":"GTA","name":"YONGE & ADELAIDE","address":"110 Yonge St","city":"TORONTO","prov":"ON","postal":"M5C1T4","lat":"43.6500775","lon":"-79.3783694","monday":"12:35-12:45","tuesday":"12:35-12:45","wednesday":"12:35-12:45","thursday":"12:35-12:45","friday":"12:35-12:45","saturday":"12:35-12:45","sunday":"12:35-12:45","branch":"4"},{"id":"5","Transit":"11","region":"WOR","name":"CHATHAM KING W & 3RD","address":"255 King St. W","city":"CHATHAM","prov":"ON","postal":"N7M1E6","lat":"42.4051258","lon":"-82.1896863","monday":"12:35-12:45","tuesday":"12:35-12:45","wednesday":"12:35-12:45","thursday":"12:35-12:45","friday":"12:35-12:45","saturday":"12:35-12:45","sunday":"12:35-12:45","branch":"5"},{"id":"6","Transit":"12","region":"WOR","name":"LONDON WORTLEY","address":"191 Wortley Rd","city":"LONDON","prov":"ON","postal":"N6C3P8","lat":"42.9708952","lon":"-81.2524432","monday":"12:35-12:45","tuesday":"12:35-12:45","wednesday":"12:35-12:45","thursday":"12:35-12:45","friday":"12:35-12:45","saturday":"12:35-12:45","sunday":"12:35-12:45","branch":"6"},{"id":"7","Transit":"17","region":"QUE","name":"MONTREAL MAIN","address":"800 Rene Levesque Blvd W","city":"MONTREAL","prov":"QC","postal":"H3B1X9","lat":"45.5009512","lon":"-73.5675947","monday":"12:35-12:45","tuesday":"12:35-12:45","wednesday":"12:35-12:45","thursday":"12:35-12:45","friday":"12:35-12:45","saturday":"12:35-12:45","sunday":"12:35-12:45","branch":"7"},{"id":"8","Transit":"18","region":"WOR","name":"WYNDHAM & CORK","address":"34 Wyndham St","city":"GUELPH","prov":"ON","postal":"N1H4E5","lat":"43.5453112","lon":"-80.2488779","monday":"12:35-12:45","tuesday":"12:35-12:45","wednesday":"12:35-12:45","thursday":"12:35-12:45","friday":"12:35-12:45","saturday":"12:35-12:45","sunday":"12:35-12:45","branch":"8"},{"id":"9","Transit":"21","region":"WOR","name":"LONDON UNIVERSITY","address":"1137 Richmond St","city":"LONDON","prov":"ON","postal":"N6A3K6","lat":"43.0084026","lon":"-81.2607841","monday":"12:35-12:45","tuesday":"12:35-12:45","wednesday":"12:35-12:45","thursday":"12:35-12:45","friday":"12:35-12:45","saturday":"12:35-12:45","sunday":"12:35-12:45","branch":"9"},{"id":"10","Transit":"23","region":"WOR","name":"N CHRISTINA & LONDON","address":"357 Christina St N","city":"SARNIA","prov":"ON","postal":"N7T5V6","lat":"42.9787249","lon":"-82.4045398","monday":"12:35-12:45","tuesday":"12:35-12:45","wednesday":"12:35-12:45","thursday":"12:35-12:45","friday":"12:35-12:45","saturday":"12:35-12:45","sunday":"12:35-12:45","branch":"10"},{"id":"11","Transit":"24","region":"COR","name":"THE PEN CENTRE","address":"240 Glendale Ave","city":"ST CATHARINES","prov":"ON","postal":"L2T2L2","lat":"43.1334175","lon":"-79.2234453","monday":"12:35-12:45","tuesday":"12:35-12:45","wednesday":"12:35-12:45","thursday":"12:35-12:45","friday":"12:35-12:45","saturday":"12:35-12:45","sunday":"12:35-12:45","branch":"11"},{"id":"12","Transit":"25","region":"PRA","name":"VILLAGE SHOPPING CENTRE","address":"6320 50th Ave","city":"RED DEER","prov":"AB","postal":"T4N4C6","lat":"52.2837189","lon":"-113.813979","monday":"12:35-12:45","tuesday":"12:35-12:45","wednesday":"12:35-12:45","thursday":"12:35-12:45","friday":"12:35-12:45","saturday":"12:35-12:45","sunday":"12:35-12:45","branch":"12"},{"id":"13","Transit":"30","region":"PRA","name":"2ND AVE S & 21ST","address":"170 2nd Ave S","city":"SASKATOON","prov":"SK","postal":"S7K1K5","lat":"52.1271657","lon":"-106.664478","monday":"12:35-12:45","tuesday":"12:35-12:45","wednesday":"12:35-12:45","thursday":"12:35-12:45","friday":"12:35-12:45","saturday":"12:35-12:45","sunday":"12:35-12:45","branch":"13"},{"id":"14","Transit":"31","region":"GTA","name":"EGLINTON & CASTLEKNOCK","address":"472 Eglinton Ave W","city":"TORONTO","prov":"ON","postal":"M5N1A6","lat":"43.7038998","lon":"-79.4125315","monday":"12:35-12:45","tuesday":"12:35-12:45","wednesday":"12:35-12:45","thursday":"12:35-12:45","friday":"12:35-12:45","saturday":"12:35-12:45","sunday":"12:35-12:45","branch":"14"},{"id":"15","Transit":"32","region":"GTA","name":"DANFORTH & VICTORIA PARK","address":"3060 Danforth Ave","city":"EAST YORK","prov":"ON","postal":"M4C1N2","lat":"43.6913467","lon":"-79.2886256","monday":"12:35-12:45","tuesday":"12:35-12:45","wednesday":"12:35-12:45","thursday":"12:35-12:45","friday":"12:35-12:45","saturday":"12:35-12:45","sunday":"12:35-12:45","branch":"15"},{"id":"16","Transit":"34","region":"PAC","name":"WEST 41 AVE","address":"511 West 41 Ave","city":"VANCOUVER","prov":"BC","postal":"V5Z2M7","lat":"49.2336811","lon":"-123.116586","monday":"12:35-12:45","tuesday":"12:35-12:45","wednesday":"12:35-12:45","thursday":"12:35-12:45","friday":"12:35-12:45","saturday":"12:35-12:45","sunday":"12:35-12:45","branch":"16"},{"id":"17","Transit":"36","region":"ATL","name":"QUINPOOL & MONASTERY","address":"6239 Quinpool Rd","city":"HALIFAX","prov":"NS","postal":"B3L1A4","lat":"44.645658","lon":"-63.5969196","monday":"12:35-12:45","tuesday":"12:35-12:45","wednesday":"12:35-12:45","thursday":"12:35-12:45","friday":"12:35-12:45","saturday":"12:35-12:45","sunday":"12:35-12:45","branch":"17"},{"id":"18","Transit":"39","region":"PRA","name":"ROSSER AVE & 9TH","address":"903 Rosser Ave","city":"BRANDON","prov":"MB","postal":"R7A0L3","lat":"49.8485662","lon":"-99.9506603","monday":"12:35-12:45","tuesday":"12:35-12:45","wednesday":"12:35-12:45","thursday":"12:35-12:45","friday":"12:35-12:45","saturday":"12:35-12:45","sunday":"12:35-12:45","branch":"18"},{"id":"19","Transit":"40","region":"WOR","name":"LONDON OAKRIDGE","address":"1213 Oxford Street West","city":"LONDON","prov":"ON","postal":"N6H1V8","lat":"42.9748529","lon":"-81.324202","monday":"12:35-12:45","tuesday":"12:35-12:45","wednesday":"12:35-12:45","thursday":"12:35-12:45","friday":"12:35-12:45","saturday":"12:35-12:45","sunday":"12:35-12:45","branch":"19"},{"id":"20","Transit":"42","region":"WOR","name":"ST. CLAIR & MAPLE","address":"345 St. Clair St","city":"CHATHAM","prov":"ON","postal":"N7L3J8","lat":"42.4136505","lon":"-82.1981551","monday":"12:35-12:45","tuesday":"12:35-12:45","wednesday":"12:35-12:45","thursday":"12:35-12:45","friday":"12:35-12:45","saturday":"12:35-12:45","sunday":"12:35-12:45","branch":"20"},{"id":"21","Transit":"43","region":"PAC","name":"TERMINAL PARK PLAZA","address":"1-1150 North Terminal Av","city":"NANAIMO","prov":"BC","postal":"V9S5L6","lat":"49.1836793","lon":"-123.954093","monday":"12:35-12:45","tuesday":"12:35-12:45","wednesday":"12:35-12:45","thursday":"12:35-12:45","friday":"12:35-12:45","saturday":"12:35-12:45","sunday":"12:35-12:45","branch":"21"},{"id":"22","Transit":"44","region":"PAC","name":"VANCOUVER CHINATOWN","address":"450 Main St","city":"VANCOUVER","prov":"BC","postal":"V6A2T4","lat":"49.2805697","lon":"-123.099486","monday":"12:35-12:45","tuesday":"12:35-12:45","wednesday":"12:35-12:45","thursday":"12:35-12:45","friday":"12:35-12:45","saturday":"12:35-12:45","sunday":"12:35-12:45","branch":"22"},{"id":"23","Transit":"47","region":"PAC","name":"WEST 41ST AVE & YEW","address":"2198 West 41st Ave","city":"VANCOUVER","prov":"BC","postal":"V6M1Z1","lat":"49.2345361","lon":"-123.158378","monday":"12:35-12:45","tuesday":"12:35-12:45","wednesday":"12:35-12:45","thursday":"12:35-12:45","friday":"12:35-12:45","saturday":"12:35-12:45","sunday":"12:35-12:45","branch":"23"},{"id":"24","Transit":"48","region":"GTA","name":"RICHVIEW SQUARE","address":"250 Wincott St","city":"ETOBICOKE","prov":"ON","postal":"M9R2R5","lat":"43.6795221","lon":"-79.5467886","monday":"12:35-12:45","tuesday":"12:35-12:45","wednesday":"12:35-12:45","thursday":"12:35-12:45","friday":"12:35-12:45","saturday":"12:35-12:45","sunday":"12:35-12:45","branch":"24"},{"id":"25","Transit":"50","region":"GTA","name":"MARKLAND WOODS","address":"4335 Bloor St W","city":"ETOBICOKE","prov":"ON","postal":"M9C2A5","lat":"43.6319426","lon":"-79.5754029","monday":"12:35-12:45","tuesday":"12:35-12:45","wednesday":"12:35-12:45","thursday":"12:35-12:45","friday":"12:35-12:45","saturday":"12:35-12:45","sunday":"12:35-12:45","branch":"25"},{"id":"26","Transit":"51","region":"GTA","name":"THE LINKS","address":"29 Links Rd","city":"NORTH YORK","prov":"ON","postal":"M2P1T7","lat":"43.7491029","lon":"-79.3999021","monday":"12:35-12:45","tuesday":"12:35-12:45","wednesday":"12:35-12:45","thursday":"12:35-12:45","friday":"12:35-12:45","saturday":"12:35-12:45","sunday":"12:35-12:45","branch":"26"},{"id":"27","Transit":"53","region":"WOR","name":"HURON & HIGHBURY","address":"1314 Huron St","city":"LONDON","prov":"ON","postal":"N5Y4V2","lat":"43.0198782","lon":"-81.2156477","monday":"12:35-12:45","tuesday":"12:35-12:45","wednesday":"12:35-12:45","thursday":"12:35-12:45","friday":"12:35-12:45","saturday":"12:35-12:45","sunday":"12:35-12:45","branch":"27"},{"id":"28","Transit":"54","region":"WOR","name":"DOWNIE & ALBERT","address":"41 Downie St","city":"STRATFORD","prov":"ON","postal":"N5A1W7","lat":"43.3704403","lon":"-80.9818814","monday":"12:35-12:45","tuesday":"12:35-12:45","wednesday":"12:35-12:45","thursday":"12:35-12:45","friday":"12:35-12:45","saturday":"12:35-12:45","sunday":"12:35-12:45","branch":"28"},{"id":"29","Transit":"57","region":"GTA","name":"YONGE & ERSKINE","address":"2453 Yonge St","city":"TORONTO","prov":"ON","postal":"M4P2H6","lat":"43.7113201","lon":"-79.3991572","monday":"12:35-12:45","tuesday":"12:35-12:45","wednesday":"12:35-12:45","thursday":"12:35-12:45","friday":"12:35-12:45","saturday":"12:35-12:45","sunday":"12:35-12:45","branch":"29"},{"id":"30","Transit":"60","region":"PAC","name":"DAVIE & BIDWELL","address":"1690 Davie St","city":"VANCOUVER","prov":"BC","postal":"V6G1V9","lat":"49.2859408","lon":"-123.140209","monday":"12:35-12:45","tuesday":"12:35-12:45","wednesday":"12:35-12:45","thursday":"12:35-12:45","friday":"12:35-12:45","saturday":"12:35-12:45","sunday":"12:35-12:45","branch":"30"},{"id":"31","Transit":"62","region":"COR","name":"BURLINGTON PROSPECT","address":"701 Guelph Ln","city":"BURLINGTON","prov":"ON","postal":"L7R3M7","lat":"43.3451428","lon":"-79.7945148","monday":"12:35-12:45","tuesday":"12:35-12:45","wednesday":"12:35-12:45","thursday":"12:35-12:45","friday":"12:35-12:45","saturday":"12:35-12:45","sunday":"12:35-12:45","branch":"31"},{"id":"32","Transit":"63","region":"COR","name":"LAKESHORE & TRAFALGAR","address":"282 Lakeshore Rd E","city":"OAKVILLE","prov":"ON","postal":"L6J5B2","lat":"43.4474617","lon":"-79.6662079","monday":"12:35-12:45","tuesday":"12:35-12:45","wednesday":"12:35-12:45","thursday":"12:35-12:45","friday":"12:35-12:45","saturday":"12:35-12:45","sunday":"12:35-12:45","branch":"32"},{"id":"33","Transit":"64","region":"COR","name":"HURONTARIO & DUNDAS","address":"2580 Hurontario St","city":"MISSISSAUGA","prov":"ON","postal":"L5B1N5","lat":"43.5792082","lon":"-79.6154467","monday":"12:35-12:45","tuesday":"12:35-12:45","wednesday":"12:35-12:45","thursday":"12:35-12:45","friday":"12:35-12:45","saturday":"12:35-12:45","sunday":"12:35-12:45","branch":"33"},{"id":"34","Transit":"65","region":"COR","name":"MILTON","address":"252 Main St","city":"MILTON","prov":"ON","postal":"L9T1N8","lat":"43.5137971","lon":"-79.882333","monday":"12:35-12:45","tuesday":"12:35-12:45","wednesday":"12:35-12:45","thursday":"12:35-12:45","friday":"12:35-12:45","saturday":"12:35-12:45","sunday":"12:35-12:45","branch":"34"},{"id":"35","Transit":"66","region":"WOR","name":"LONDON SHERWOOD","address":"1055 Wonderland Rd N","city":"LONDON","prov":"ON","postal":"N6G2Y9","lat":"43.0010886","lon":"-81.3015819","monday":"12:35-12:45","tuesday":"12:35-12:45","wednesday":"12:35-12:45","thursday":"12:35-12:45","friday":"12:35-12:45","saturday":"12:35-12:45","sunday":"12:35-12:45","branch":"35"},{"id":"36","Transit":"67","region":"WOR","name":"KING W & ONTARIO","address":"55 King W","city":"KITCHENER","prov":"ON","postal":"N2G4W1","lat":"43.45015","lon":"-80.490346","monday":"12:35-12:45","tuesday":"12:35-12:45","wednesday":"12:35-12:45","thursday":"12:35-12:45","friday":"12:35-12:45","saturday":"12:35-12:45","sunday":"12:35-12:45","branch":"36"},{"id":"37","Transit":"70","region":"COR","name":"HALTON HILLS","address":"29 Main St S","city":"GEORGETOWN","prov":"ON","postal":"L7G3G2","lat":"43.6504655","lon":"-79.9271608","monday":"12:35-12:45","tuesday":"12:35-12:45","wednesday":"12:35-12:45","thursday":"12:35-12:45","friday":"12:35-12:45","saturday":"12:35-12:45","sunday":"12:35-12:45","branch":"37"},{"id":"38","Transit":"71","region":"WOR","name":"KING & WESTMINSTER","address":"699 King St E","city":"CAMBRIDGE","prov":"ON","postal":"N3H3N7","lat":"43.3958917","lon":"-80.3584407","monday":"12:35-12:45","tuesday":"12:35-12:45","wednesday":"12:35-12:45","thursday":"12:35-12:45","friday":"12:35-12:45","saturday":"12:35-12:45","sunday":"12:35-12:45","branch":"38"},{"id":"39","Transit":"72","region":"WOR","name":"BELMONT & CLAREMONT","address":"693 Belmont Ave W","city":"KITCHENER","prov":"ON","postal":"N2M1P1","lat":"43.4534942","lon":"-80.5183028","monday":"12:35-12:45","tuesday":"12:35-12:45","wednesday":"12:35-12:45","thursday":"12:35-12:45","friday":"12:35-12:45","saturday":"12:35-12:45","sunday":"12:35-12:45","branch":"39"},{"id":"40","Transit":"76","region":"WOR","name":"FAIRVIEW PARK MALL","address":"2960 Kingsway Drive","city":"KITCHENER","prov":"ON","postal":"N2C1X1","lat":"","lon":"","monday":"12:35-12:45","tuesday":"12:35-12:45","wednesday":"12:35-12:45","thursday":"12:35-12:45","friday":"12:35-12:45","saturday":"12:35-12:45","sunday":"12:35-12:45","branch":"40"},{"id":"41","Transit":"77","region":"WOR","name":"FERGUS","address":"298 St Andrew St W","city":"FERGUS","prov":"ON","postal":"N1M1N7","lat":"","lon":"","monday":"12:35-12:45","tuesday":"12:35-12:45","wednesday":"12:35-12:45","thursday":"12:35-12:45","friday":"12:35-12:45","saturday":"12:35-12:45","sunday":"12:35-12:45","branch":"41"},{"id":"42","Transit":"78","region":"WOR","name":"STANLEY PARK MALL","address":"1005 Ottawa Street","city":"KITCHENER","prov":"ON","postal":"N2A1H2","lat":"","lon":"","monday":"12:35-12:45","tuesday":"12:35-12:45","wednesday":"12:35-12:45","thursday":"12:35-12:45","friday":"12:35-12:45","saturday":"12:35-12:45","sunday":"12:35-12:45","branch":"42"},{"id":"43","Transit":"80","region":"COR","name":"BURLINGTON MAIN","address":"510 Brant St","city":"BURLINGTON","prov":"ON","postal":"L7R2G7","lat":"43.3277319","lon":"-79.8011738","monday":"12:35-12:45","tuesday":"12:35-12:45","wednesday":"12:35-12:45","thursday":"12:35-12:45","friday":"12:35-12:45","saturday":"12:35-12:45","sunday":"12:35-12:45","branch":"43"},{"id":"44","Transit":"81","region":"COR","name":"DUNDAS","address":"82 King St W","city":"DUNDAS","prov":"ON","postal":"L9H1T9","lat":"43.2664954","lon":"-79.9572569","monday":"12:35-12:45","tuesday":"12:35-12:45","wednesday":"12:35-12:45","thursday":"12:35-12:45","friday":"12:35-12:45","saturday":"12:35-12:45","sunday":"12:35-12:45","branch":"44"},{"id":"45","Transit":"82","region":"WOR","name":"DELHI","address":"121 King St","city":"DELHI","prov":"ON","postal":"N4B1X9","lat":"42.8558278","lon":"-80.4982846","monday":"12:35-12:45","tuesday":"12:35-12:45","wednesday":"12:35-12:45","thursday":"12:35-12:45","friday":"12:35-12:45","saturday":"12:35-12:45","sunday":"12:35-12:45","branch":"45"},{"id":"46","Transit":"83","region":"WOR","name":"SIMCOE","address":"46 Norfolk St N","city":"SIMCOE","prov":"ON","postal":"N3Y5C6","lat":"42.8382399","lon":"-80.3045266","monday":"12:35-12:45","tuesday":"12:35-12:45","wednesday":"12:35-12:45","thursday":"12:35-12:45","friday":"12:35-12:45","saturday":"12:35-12:45","sunday":"12:35-12:45","branch":"46"},{"id":"47","Transit":"84","region":"WOR","name":"DEVONSHIRE MALL","address":"3100 Howard Avenue","city":"WINDSOR","prov":"ON","postal":"N8X3Y8","lat":"42.2746699","lon":"-83.0035562","monday":"12:35-12:45","tuesday":"12:35-12:45","wednesday":"12:35-12:45","thursday":"12:35-12:45","friday":"12:35-12:45","saturday":"12:35-12:45","sunday":"12:35-12:45","branch":"47"},{"id":"48","Transit":"85","region":"WOR","name":"50 WESTMOUNT RD N","address":"50 Westmount Rd N","city":"WATERLOO","prov":"ON","postal":"N2L2R5","lat":"43.4624072","lon":"-80.5382527","monday":"12:35-12:45","tuesday":"12:35-12:45","wednesday":"12:35-12:45","thursday":"12:35-12:45","friday":"12:35-12:45","saturday":"12:35-12:45","sunday":"12:35-12:45","branch":"48"},{"id":"49","Transit":"86","region":"PAC","name":"PARK ROYAL SHOPPING CENTRE","address":"632 Park Royal North","city":"WEST VANCOUVER","prov":"BC","postal":"V7T1H9","lat":"49.3263104","lon":"-123.137887","monday":"12:35-12:45","tuesday":"12:35-12:45","wednesday":"12:35-12:45","thursday":"12:35-12:45","friday":"12:35-12:45","saturday":"12:35-12:45","sunday":"12:35-12:45","branch":"49"},{"id":"50","Transit":"87","region":"GTA","name":"FAIRVIEW","address":"1800 Sheppard Ave E Unit 218","city":"NORTH YORK","prov":"ON","postal":"M2J5A7","lat":"43.7787787","lon":"-79.3447208","monday":"12:35-12:45","tuesday":"12:35-12:45","wednesday":"12:35-12:45","thursday":"12:35-12:45","friday":"12:35-12:45","saturday":"12:35-12:45","sunday":"12:35-12:45","branch":"50"},{"id":"51","Transit":"88","region":"WOR","name":"170 SILVERCREEK","address":"170 Silvercreek Pkwy N","city":"GUELPH","prov":"ON","postal":"N1H7P7","lat":"43.5415353","lon":"-80.2825349","monday":"12:35-12:45","tuesday":"12:35-12:45","wednesday":"12:35-12:45","thursday":"12:35-12:45","friday":"12:35-12:45","saturday":"12:35-12:45","sunday":"12:35-12:45","branch":"51"},{"id":"52","Transit":"89","region":"COR","name":"BRAMALEA CITY CENTRE","address":"100 Peel Centre Drive","city":"BRAMPTON","prov":"ON","postal":"L6T4G8","lat":"43.7120544","lon":"-79.7226272","monday":"12:35-12:45","tuesday":"12:35-12:45","wednesday":"12:35-12:45","thursday":"12:35-12:45","friday":"12:35-12:45","saturday":"12:35-12:45","sunday":"12:35-12:45","branch":"52"},{"id":"53","Transit":"90","region":"COR","name":"STONEY CREEK","address":"800 Queenston Rd","city":"STONEY CREEK","prov":"ON","postal":"L8G1A7","lat":"43.2279144","lon":"-79.7646542","monday":"12:35-12:45","tuesday":"12:35-12:45","wednesday":"12:35-12:45","thursday":"12:35-12:45","friday":"12:35-12:45","saturday":"12:35-12:45","sunday":"12:35-12:45","branch":"53"},{"id":"54","Transit":"91","region":"PAC","name":"4994 KINGSWAY STREET","address":"4994 Kingsway Street","city":"BURNABY","prov":"BC","postal":"V5H2E2","lat":"49.2294908","lon":"-123.002575","monday":"12:35-12:45","tuesday":"12:35-12:45","wednesday":"12:35-12:45","thursday":"12:35-12:45","friday":"12:35-12:45","saturday":"12:35-12:45","sunday":"12:35-12:45","branch":"54"},{"id":"55","Transit":"92","region":"WOR","name":"HESPELER RD & BISHOP","address":"425 Hespeler Rd","city":"CAMBRIDGE","prov":"ON","postal":"N1R6J2","lat":"43.3953806","lon":"-80.3238989","monday":"12:35-12:45","tuesday":"12:35-12:45","wednesday":"12:35-12:45","thursday":"12:35-12:45","friday":"12:35-12:45","saturday":"12:35-12:45","sunday":"12:35-12:45","branch":"55"},{"id":"56","Transit":"93","region":"COR","name":"MISSISSAUGA SQUARE ONE","address":"100 City Centre Dr-Sq 1","city":"MISSISSAUGA","prov":"ON","postal":"L5B2C9","lat":"43.5890452","lon":"-79.6441198","monday":"12:35-12:45","tuesday":"12:35-12:45","wednesday":"12:35-12:45","thursday":"12:35-12:45","friday":"12:35-12:45","saturday":"12:35-12:45","sunday":"12:35-12:45","branch":"56"},{"id":"57","Transit":"100","region":"WOR","name":"ELGIN MALL","address":"417 Wellington St","city":"ST THOMAS","prov":"ON","postal":"N5R5J5","lat":"42.7750297","lon":"-81.1592707","monday":"12:35-12:45","tuesday":"12:35-12:45","wednesday":"12:35-12:45","thursday":"12:35-12:45","friday":"12:35-12:45","saturday":"12:35-12:45","sunday":"12:35-12:45","branch":"57"},{"id":"58","Transit":"101","region":"WOR","name":"LONDON CITY CENTRE","address":"275 Dundas St.","city":"LONDON","prov":"ON","postal":"N6A4S4","lat":"42.9849757","lon":"-81.2450801","monday":"12:35-12:45","tuesday":"12:35-12:45","wednesday":"12:35-12:45","thursday":"12:35-12:45","friday":"12:35-12:45","saturday":"12:35-12:45","sunday":"12:35-12:45","branch":"58"},{"id":"59","Transit":"102","region":"COR","name":"BARTON & KENILWORTH","address":"1311 Barton St. E.","city":"HAMILTON","prov":"ON","postal":"L8H2V4","lat":"43.2492435","lon":"-79.8061993","monday":"12:35-12:45","tuesday":"12:35-12:45","wednesday":"12:35-12:45","thursday":"12:35-12:45","friday":"12:35-12:45","saturday":"12:35-12:45","sunday":"12:35-12:45","branch":"59"},{"id":"60","Transit":"104","region":"PRA","name":"WILLOW PARK VILLAGE","address":"10816 Macleod Trail S, Unit 234","city":"CALGARY","prov":"AB","postal":"T2J5N8","lat":"50.956318","lon":"-114.070187","monday":"12:35-12:45","tuesday":"12:35-12:45","wednesday":"12:35-12:45","thursday":"12:35-12:45","friday":"12:35-12:45","saturday":"12:35-12:45","sunday":"12:35-12:45","branch":"60"},{"id":"61","Transit":"108","region":"WOR","name":"COMMISSIONERS & BOLER","address":"1260 Commissioners Rd W","city":"LONDON","prov":"ON","postal":"N6K1C7","lat":"42.9594766","lon":"-81.332647","monday":"12:35-12:45","tuesday":"12:35-12:45","wednesday":"12:35-12:45","thursday":"12:35-12:45","friday":"12:35-12:45","saturday":"12:35-12:45","sunday":"12:35-12:45","branch":"61"},{"id":"62","Transit":"109","region":"WOR","name":"LONDON & WESTMOUNT","address":"775 Wonderland Rd South Bldg D","city":"LONDON","prov":"ON","postal":"N6K2Y5","lat":"42.948145","lon":"-81.2906072","monday":"12:35-12:45","tuesday":"12:35-12:45","wednesday":"12:35-12:45","thursday":"12:35-12:45","friday":"12:35-12:45","saturday":"12:35-12:45","sunday":"12:35-12:45","branch":"62"},{"id":"63","Transit":"110","region":"WOR","name":"PLATTS LANE","address":"215 Oxford St W","city":"LONDON","prov":"ON","postal":"N6H1S5","lat":"42.9899411","lon":"-81.2721156","monday":"12:35-12:45","tuesday":"12:35-12:45","wednesday":"12:35-12:45","thursday":"12:35-12:45","friday":"12:35-12:45","saturday":"12:35-12:45","sunday":"12:35-12:45","branch":"63"},{"id":"64","Transit":"111","region":"WOR","name":"PIONEER PARK PLAZA","address":"123 Pioneer Drive","city":"KITCHENER","prov":"ON","postal":"N2P1K8","lat":"43.3941552","lon":"-80.4327809","monday":"12:35-12:45","tuesday":"12:35-12:45","wednesday":"12:35-12:45","thursday":"12:35-12:45","friday":"12:35-12:45","saturday":"12:35-12:45","sunday":"12:35-12:45","branch":"64"},{"id":"65","Transit":"114","region":"WOR","name":"LONDON ERNEST","address":"1420 Ernest Ave","city":"LONDON","prov":"ON","postal":"N6E2H8","lat":"42.932837","lon":"-81.236486","monday":"12:35-12:45","tuesday":"12:35-12:45","wednesday":"12:35-12:45","thursday":"12:35-12:45","friday":"12:35-12:45","saturday":"12:35-12:45","sunday":"12:35-12:45","branch":"65"},{"id":"66","Transit":"115","region":"PAC","name":"S. FRASER WAY & TRETHEWEY","address":"32435 South Fraser Way","city":"ABBOTSFORD","prov":"BC","postal":"V2T1X4","lat":"49.0514992","lon":"-122.325483","monday":"12:35-12:45","tuesday":"12:35-12:45","wednesday":"12:35-12:45","thursday":"12:35-12:45","friday":"12:35-12:45","saturday":"12:35-12:45","sunday":"12:35-12:45","branch":"66"},{"id":"67","Transit":"120","region":"COR","name":"DUNVILLE","address":"163 Lock St E","city":"DUNNVILLE","prov":"ON","postal":"N1A1J6","lat":"42.9026794","lon":"-79.6182295","monday":"12:35-12:45","tuesday":"12:35-12:45","wednesday":"12:35-12:45","thursday":"12:35-12:45","friday":"12:35-12:45","saturday":"12:35-12:45","sunday":"12:35-12:45","branch":"67"},{"id":"68","Transit":"123","region":"COR","name":"QUEEN & ST CLAIR","address":"4463 Queen St","city":"NIAGARA FALLS","prov":"ON","postal":"L2E2L2","lat":"43.1068871","lon":"-79.0668264","monday":"12:35-12:45","tuesday":"12:35-12:45","wednesday":"12:35-12:45","thursday":"12:35-12:45","friday":"12:35-12:45","saturday":"12:35-12:45","sunday":"12:35-12:45","branch":"68"},{"id":"69","Transit":"124","region":"COR","name":"TOWN & COUNTRY PLAZA","address":"3643 Portage Road","city":"NIAGARA FALLS","prov":"ON","postal":"L2J2K8","lat":"43.1201744","lon":"-79.0995848","monday":"12:35-12:45","tuesday":"12:35-12:45","wednesday":"12:35-12:45","thursday":"12:35-12:45","friday":"12:35-12:45","saturday":"12:35-12:45","sunday":"12:35-12:45","branch":"69"},{"id":"70","Transit":"125","region":"WOR","name":"LASALLE","address":"5990 Malden Rd","city":"LASALLE","prov":"ON","postal":"N9H1S4","lat":"42.2445157","lon":"-83.0605464","monday":"12:35-12:45","tuesday":"12:35-12:45","wednesday":"12:35-12:45","thursday":"12:35-12:45","friday":"12:35-12:45","saturday":"12:35-12:45","sunday":"12:35-12:45","branch":"70"},{"id":"71","Transit":"126","region":"COR","name":"GRANTHAM PLAZA","address":"364 Scott St","city":"ST CATHARINES","prov":"ON","postal":"L2M3W4","lat":"43.1894768","lon":"-79.2276173","monday":"12:35-12:45","tuesday":"12:35-12:45","wednesday":"12:35-12:45","thursday":"12:35-12:45","friday":"12:35-12:45","saturday":"12:35-12:45","sunday":"12:35-12:45","branch":"71"},{"id":"72","Transit":"129","region":"COR","name":"MAIN ST E & CROSS","address":"144 East Main St","city":"WELLAND","prov":"ON","postal":"L3B3W6","lat":"42.9924473","lon":"-79.2467729","monday":"12:35-12:45","tuesday":"12:35-12:45","wednesday":"12:35-12:45","thursday":"12:35-12:45","friday":"12:35-12:45","saturday":"12:35-12:45","sunday":"12:35-12:45","branch":"72"},{"id":"73","Transit":"130","region":"WOR","name":"LISTOWEL","address":"195 Main St E","city":"LISTOWEL","prov":"ON","postal":"N4W2B5","lat":"43.7311749","lon":"-80.951903","monday":"12:35-12:45","tuesday":"12:35-12:45","wednesday":"12:35-12:45","thursday":"12:35-12:45","friday":"12:35-12:45","saturday":"12:35-12:45","sunday":"12:35-12:45","branch":"73"},{"id":"74","Transit":"131","region":"WOR","name":"WOOLWICH","address":"666 Woolwich St","city":"GUELPH","prov":"ON","postal":"N1H7G5","lat":"43.558954","lon":"-80.268982","monday":"12:35-12:45","tuesday":"12:35-12:45","wednesday":"12:35-12:45","thursday":"12:35-12:45","friday":"12:35-12:45","saturday":"12:35-12:45","sunday":"12:35-12:45","branch":"74"},{"id":"75","Transit":"132","region":"GTA","name":"BLOOR & BATHURST","address":"574 Bloor St W","city":"TORONTO","prov":"ON","postal":"M6G1K1","lat":"43.6650138","lon":"-79.4117401","monday":"12:35-12:45","tuesday":"12:35-12:45","wednesday":"12:35-12:45","thursday":"12:35-12:45","friday":"12:35-12:45","saturday":"12:35-12:45","sunday":"12:35-12:45","branch":"75"},{"id":"76","Transit":"136","region":"COR","name":"BRAMPTON CITY SOUTH","address":"7686 Hurontario","city":"BRAMPTON","prov":"ON","postal":"L6Y5B5","lat":"43.6585907","lon":"-79.7234289","monday":"12:35-12:45","tuesday":"12:35-12:45","wednesday":"12:35-12:45","thursday":"12:35-12:45","friday":"12:35-12:45","saturday":"12:35-12:45","sunday":"12:35-12:45","branch":"76"},{"id":"77","Transit":"137","region":"ONE","name":"CORNWALL SQUARE","address":"1 Water St E","city":"CORNWALL","prov":"ON","postal":"K6H6M2","lat":"45.0161794","lon":"-74.7238798","monday":"12:35-12:45","tuesday":"12:35-12:45","wednesday":"12:35-12:45","thursday":"12:35-12:45","friday":"12:35-12:45","saturday":"12:35-12:45","sunday":"12:35-12:45","branch":"77"},{"id":"78","Transit":"138","region":"ONE","name":"KAPUSKASING","address":"25 Brunetville Rd","city":"KAPUSKASING","prov":"ON","postal":"P5N2E9","lat":"49.4200655","lon":"-82.4197319","monday":"12:35-12:45","tuesday":"12:35-12:45","wednesday":"12:35-12:45","thursday":"12:35-12:45","friday":"12:35-12:45","saturday":"12:35-12:45","sunday":"12:35-12:45","branch":"78"},{"id":"79","Transit":"139","region":"ONE","name":"94 PRINCESS STREET","address":"94 Princess Street","city":"KINGSTON","prov":"ON","postal":"K7L1A5","lat":"44.2315531","lon":"-76.4824088","monday":"12:35-12:45","tuesday":"12:35-12:45","wednesday":"12:35-12:45","thursday":"12:35-12:45","friday":"12:35-12:45","saturday":"12:35-12:45","sunday":"12:35-12:45","branch":"79"},{"id":"80","Transit":"151","region":"COR","name":"DORCHESTER & LUNDY'S LANE","address":"5900 Dorchester Rd","city":"NIAGARA FALLS","prov":"ON","postal":"L2G5S9","lat":"43.0882468","lon":"-79.1105342","monday":"12:35-12:45","tuesday":"12:35-12:45","wednesday":"12:35-12:45","thursday":"12:35-12:45","friday":"12:35-12:45","saturday":"12:35-12:45","sunday":"12:35-12:45","branch":"80"},{"id":"81","Transit":"152","region":"PAC","name":"NO.3 RD & COOK","address":"6380 No.3 Rd","city":"RICHMOND","prov":"BC","postal":"V6Y2B3","lat":"49.1665937","lon":"-123.135581","monday":"12:35-12:45","tuesday":"12:35-12:45","wednesday":"12:35-12:45","thursday":"12:35-12:45","friday":"12:35-12:45","saturday":"12:35-12:45","sunday":"12:35-12:45","branch":"81"},{"id":"82","Transit":"153","region":"GTA","name":"FINCH EAST & BAYVIEW","address":"686 Finch Ave E","city":"NORTH YORK","prov":"ON","postal":"M2K2E6","lat":"43.7721362","lon":"-79.4520733","monday":"12:35-12:45","tuesday":"12:35-12:45","wednesday":"12:35-12:45","thursday":"12:35-12:45","friday":"12:35-12:45","saturday":"12:35-12:45","sunday":"12:35-12:45","branch":"82"},{"id":"83","Transit":"154","region":"PRA","name":"MILLBOURNE MALL","address":"133 Millbourne Mall","city":"EDMONTON","prov":"AB","postal":"T6K3L6","lat":"53.472926","lon":"-113.45066","monday":"12:35-12:45","tuesday":"12:35-12:45","wednesday":"12:35-12:45","thursday":"12:35-12:45","friday":"12:35-12:45","saturday":"12:35-12:45","sunday":"12:35-12:45","branch":"83"},{"id":"84","Transit":"155","region":"WOR","name":"SIMCOE MALL","address":"135 Queensway Dr E","city":"SIMCOE","prov":"ON","postal":"N3Y4M5","lat":"42.8483773","lon":"-80.2928155","monday":"12:35-12:45","tuesday":"12:35-12:45","wednesday":"12:35-12:45","thursday":"12:35-12:45","friday":"12:35-12:45","saturday":"12:35-12:45","sunday":"12:35-12:45","branch":"84"},{"id":"85","Transit":"156","region":"ONE","name":"NORTH BAY MALL","address":"300 Lakeshore Drive","city":"NORTH BAY","prov":"ON","postal":"P1A3V2","lat":"46.2825334","lon":"-79.448906","monday":"12:35-12:45","tuesday":"12:35-12:45","wednesday":"12:35-12:45","thursday":"12:35-12:45","friday":"12:35-12:45","saturday":"12:35-12:45","sunday":"12:35-12:45","branch":"85"},{"id":"86","Transit":"159","region":"COR","name":"MEADOWVALE TOWN CENTRE","address":"6760 Meadowvale Town Centre Cir.","city":"MISSISSAUGA","prov":"ON","postal":"L5N4B7","lat":"43.5839644","lon":"-79.760639","monday":"12:35-12:45","tuesday":"12:35-12:45","wednesday":"12:35-12:45","thursday":"12:35-12:45","friday":"12:35-12:45","saturday":"12:35-12:45","sunday":"12:35-12:45","branch":"86"},{"id":"87","Transit":"160","region":"COR","name":"FENNELL & UPPER WENTWORTH","address":"550 Fennell Ave E","city":"HAMILTON","prov":"ON","postal":"L8V4S9","lat":"43.231365","lon":"-79.8574523","monday":"12:35-12:45","tuesday":"12:35-12:45","wednesday":"12:35-12:45","thursday":"12:35-12:45","friday":"12:35-12:45","saturday":"12:35-12:45","sunday":"12:35-12:45","branch":"87"},{"id":"88","Transit":"162","region":"COR","name":"BURLINGTON APPLEBY","address":"5000 New St","city":"BURLINGTON","prov":"ON","postal":"L7L1V1","lat":"43.3673869","lon":"-79.7533263","monday":"12:35-12:45","tuesday":"12:35-12:45","wednesday":"12:35-12:45","thursday":"12:35-12:45","friday":"12:35-12:45","saturday":"12:35-12:45","sunday":"12:35-12:45","branch":"88"},{"id":"89","Transit":"163","region":"WOR","name":"CONESTOGA MALL","address":"550 King Street North","city":"WATERLOO","prov":"ON","postal":"N2L5W6","lat":"43.4980824","lon":"-80.5274971","monday":"12:35-12:45","tuesday":"12:35-12:45","wednesday":"12:35-12:45","thursday":"12:35-12:45","friday":"12:35-12:45","saturday":"12:35-12:45","sunday":"12:35-12:45","branch":"89"},{"id":"90","Transit":"164","region":"ONE","name":"WESTGATE SHOPPING CENTRE","address":"1309 Carling Ave","city":"OTTAWA","prov":"ON","postal":"K1Z7L3","lat":"45.3869566","lon":"-75.7353813","monday":"12:35-12:45","tuesday":"12:35-12:45","wednesday":"12:35-12:45","thursday":"12:35-12:45","friday":"12:35-12:45","saturday":"12:35-12:45","sunday":"12:35-12:45","branch":"90"},{"id":"91","Transit":"165","region":"WOR","name":"FRANKLIN & HWY 8","address":"200 Franklin Blvd","city":"CAMBRIDGE","prov":"ON","postal":"N1R5S2","lat":"43.3562539","lon":"-80.2875706","monday":"12:35-12:45","tuesday":"12:35-12:45","wednesday":"12:35-12:45","thursday":"12:35-12:45","friday":"12:35-12:45","saturday":"12:35-12:45","sunday":"12:35-12:45","branch":"91"},{"id":"92","Transit":"166","region":"COR","name":"ORANGEVILLE MALL","address":"150 First St","city":"ORANGEVILLE","prov":"ON","postal":"L9W3T7","lat":"43.931412","lon":"-80.1028549","monday":"12:35-12:45","tuesday":"12:35-12:45","wednesday":"12:35-12:45","thursday":"12:35-12:45","friday":"12:35-12:45","saturday":"12:35-12:45","sunday":"12:35-12:45","branch":"92"},{"id":"93","Transit":"168","region":"COR","name":"BURLINGTON UPPER MIDDLE","address":"1505 Guelph Ln","city":"BURLINGTON","prov":"ON","postal":"L7P3B6","lat":"","lon":"","monday":"12:35-12:45","tuesday":"12:35-12:45","wednesday":"12:35-12:45","thursday":"12:35-12:45","friday":"12:35-12:45","saturday":"12:35-12:45","sunday":"12:35-12:45","branch":"93"},{"id":"94","Transit":"171","region":"PRA","name":"10TH ST & 17TH AVE","address":"1029 17th Ave Sw","city":"CALGARY","prov":"AB","postal":"T2T0A9","lat":"51.0378272","lon":"-114.085733","monday":"12:35-12:45","tuesday":"12:35-12:45","wednesday":"12:35-12:45","thursday":"12:35-12:45","friday":"12:35-12:45","saturday":"12:35-12:45","sunday":"12:35-12:45","branch":"94"},{"id":"95","Transit":"172","region":"PRA","name":"43RD ST & MEMORIAL DR","address":"4415 Memorial Dr Se","city":"CALGARY","prov":"AB","postal":"T2A6A4","lat":"51.0489174","lon":"-113.991820","monday":"12:35-12:45","tuesday":"12:35-12:45","wednesday":"12:35-12:45","thursday":"12:35-12:45","friday":"12:35-12:45","saturday":"12:35-12:45","sunday":"12:35-12:45","branch":"95"},{"id":"96","Transit":"174","region":"WOR","name":"STRASBURG & BLOCKLINE","address":"700 Strasburg Rd","city":"KITCHENER","prov":"ON","postal":"N2E2M2","lat":"43.413301","lon":"-80.477723","monday":"12:35-12:45","tuesday":"12:35-12:45","wednesday":"12:35-12:45","thursday":"12:35-12:45","friday":"12:35-12:45","saturday":"12:35-12:45","sunday":"12:35-12:45","branch":"96"},{"id":"97","Transit":"175","region":"PAC","name":"15960 FRASER HWY","address":"601-15960 Fraser Hwy.","city":"SURREY","prov":"BC","postal":"V3S2W5","lat":"49.1577076","lon":"-122.779902","monday":"12:35-12:45","tuesday":"12:35-12:45","wednesday":"12:35-12:45","thursday":"12:35-12:45","friday":"12:35-12:45","saturday":"12:35-12:45","sunday":"12:35-12:45","branch":"97"},{"id":"98","Transit":"177","region":"PRA","name":"CANADA TRUST SQUARE","address":"40-101 St. Albert Rd.","city":"ST ALBERT","prov":"AB","postal":"T8N6L5","lat":"53.6206325","lon":"-113.607557","monday":"12:35-12:45","tuesday":"12:35-12:45","wednesday":"12:35-12:45","thursday":"12:35-12:45","friday":"12:35-12:45","saturday":"12:35-12:45","sunday":"12:35-12:45","branch":"98"},{"id":"99","Transit":"178","region":"COR","name":"FENNELL & UPPER OTTAWA","address":"1119 Fennell Ave E","city":"HAMILTON","prov":"ON","postal":"L8T1S2","lat":"43.2259754","lon":"-79.8284402","monday":"12:35-12:45","tuesday":"12:35-12:45","wednesday":"12:35-12:45","thursday":"12:35-12:45","friday":"12:35-12:45","saturday":"12:35-12:45","sunday":"12:35-12:45","branch":"99"},{"id":"100","Transit":"182","region":"COR","name":"60 MAPLEVIEW DR WEST","address":"60 Mapleview Dr West","city":"BARRIE","prov":"ON","postal":"L4N9H6","lat":"44.3341312","lon":"-79.6904707","monday":"12:35-12:45","tuesday":"12:35-12:45","wednesday":"12:35-12:45","thursday":"12:35-12:45","friday":"12:35-12:45","saturday":"12:35-12:45","sunday":"12:35-12:45","branch":"100"},{"id":"101","Transit":"183","region":"PRA","name":"THE HAMPTONS","address":"300 1000 Hamptons Dr Nw","city":"CALGARY","prov":"AB","postal":"T3A6A7","lat":"51.1415868","lon":"-114.132158","monday":"12:35-12:45","tuesday":"12:35-12:45","wednesday":"12:35-12:45","thursday":"12:35-12:45","friday":"12:35-12:45","saturday":"12:35-12:45","sunday":"12:35-12:45","branch":"101"},{"id":"102","Transit":"184","region":"COR","name":"BRAMPTON SPRINGDALE","address":"90 Great Lakes Drive","city":"BRAMPTON","prov":"ON","postal":"L6R2K7","lat":"43.7316615","lon":"-79.7622082","monday":"12:35-12:45","tuesday":"12:35-12:45","wednesday":"12:35-12:45","thursday":"12:35-12:45","friday":"12:35-12:45","saturday":"12:35-12:45","sunday":"12:35-12:45","branch":"102"},{"id":"103","Transit":"190","region":"ONE","name":"GARDINERS & TAYLOR KIDD","address":"750 Gardiners Road","city":"KINGSTON","prov":"ON","postal":"K7M3X9","lat":"44.2483168","lon":"-76.5680914","monday":"12:35-12:45","tuesday":"12:35-12:45","wednesday":"12:35-12:45","thursday":"12:35-12:45","friday":"12:35-12:45","saturday":"12:35-12:45","sunday":"12:35-12:45","branch":"103"},{"id":"104","Transit":"191","region":"COR","name":"UPPER JAMES & MOHAWK","address":"830 Upper James St","city":"HAMILTON","prov":"ON","postal":"L9C3A4","lat":"43.2287019","lon":"-79.881808","monday":"12:35-12:45","tuesday":"12:35-12:45","wednesday":"12:35-12:45","thursday":"12:35-12:45","friday":"12:35-12:45","saturday":"12:35-12:45","sunday":"12:35-12:45","branch":"104"},{"id":"105","Transit":"192","region":"GTA","name":"LAWRENCE & PHARMACY","address":"1846 Lawrence Ave E","city":"SCARBOROUGH","prov":"ON","postal":"M1R2Y4","lat":"43.7434054","lon":"-79.3040031","monday":"12:35-12:45","tuesday":"12:35-12:45","wednesday":"12:35-12:45","thursday":"12:35-12:45","friday":"12:35-12:45","saturday":"12:35-12:45","sunday":"12:35-12:45","branch":"105"},{"id":"106","Transit":"193","region":"GTA","name":"ROYAL YORK & EGLINTON","address":"1440 Royal York Rd","city":"ETOBICOKE","prov":"ON","postal":"M9P3B1","lat":"43.686119","lon":"-79.5287104","monday":"12:35-12:45","tuesday":"12:35-12:45","wednesday":"12:35-12:45","thursday":"12:35-12:45","friday":"12:35-12:45","saturday":"12:35-12:45","sunday":"12:35-12:45","branch":"106"},{"id":"107","Transit":"197","region":"GTA","name":"WARDEN & FINCH","address":"2565 Warden Ave","city":"SCARBOROUGH","prov":"ON","postal":"M1W2H5","lat":"43.7916605","lon":"-79.3136423","monday":"12:35-12:45","tuesday":"12:35-12:45","wednesday":"12:35-12:45","thursday":"12:35-12:45","friday":"12:35-12:45","saturday":"12:35-12:45","sunday":"12:35-12:45","branch":"107"},{"id":"108","Transit":"202","region":"COR","name":"WILSON & FIDDLER'S GREEN","address":"98 Wilson St W","city":"ANCASTER","prov":"ON","postal":"LG91N3","lat":"43.2150031","lon":"-79.9913731","monday":"12:35-12:45","tuesday":"12:35-12:45","wednesday":"12:35-12:45","thursday":"12:35-12:45","friday":"12:35-12:45","saturday":"12:35-12:45","sunday":"12:35-12:45","branch":"108"},{"id":"109","Transit":"204","region":"PAC","name":"SPALL PLAZA","address":"150-1950 Harvey Ave","city":"KELOWNA","prov":"BC","postal":"V1Y8J8","lat":"49.8820667","lon":"-119.450373","monday":"12:35-12:45","tuesday":"12:35-12:45","wednesday":"12:35-12:45","thursday":"12:35-12:45","friday":"12:35-12:45","saturday":"12:35-12:45","sunday":"12:35-12:45","branch":"109"},{"id":"110","Transit":"205","region":"PRA","name":"CENTRE ST N & 12TH","address":"1216 Centre St Ne","city":"CALGARY","prov":"AB","postal":"T2E2R4","lat":"51.0630525","lon":"-114.062281","monday":"12:35-12:45","tuesday":"12:35-12:45","wednesday":"12:35-12:45","thursday":"12:35-12:45","friday":"12:35-12:45","saturday":"12:35-12:45","sunday":"12:35-12:45","branch":"110"},{"id":"111","Transit":"206","region":"COR","name":"MCCOWAN & HWY 7","address":"8545 McCowan Rd","city":"MARKHAM","prov":"ON","postal":"L3P1W9","lat":"43.8684708","lon":"-79.2848576","monday":"12:35-12:45","tuesday":"12:35-12:45","wednesday":"12:35-12:45","thursday":"12:35-12:45","friday":"12:35-12:45","saturday":"12:35-12:45","sunday":"12:35-12:45","branch":"111"},{"id":"112","Transit":"212","region":"PAC","name":"FRANCIS RD & SEAFAIR","address":"3960 Francis Rd","city":"RICHMOND","prov":"BC","postal":"V7C1J7","lat":"49.1481906","lon":"-123.181848","monday":"12:35-12:45","tuesday":"12:35-12:45","wednesday":"12:35-12:45","thursday":"12:35-12:45","friday":"12:35-12:45","saturday":"12:35-12:45","sunday":"12:35-12:45","branch":"112"},{"id":"113","Transit":"216","region":"PAC","name":"FOUR BENTALL CENTER","address":"1055 Dunsmuir St","city":"VANCOUVER","prov":"BC","postal":"V7X1P3","lat":"49.2862278","lon":"-123.121322","monday":"12:35-12:45","tuesday":"12:35-12:45","wednesday":"12:35-12:45","thursday":"12:35-12:45","friday":"12:35-12:45","saturday":"12:35-12:45","sunday":"12:35-12:45","branch":"113"},{"id":"114","Transit":"217","region":"COR","name":"3RD LINE & UPPER MIDDLE","address":"1424 Upper Middle Rd W","city":"OAKVILLE","prov":"ON","postal":"L6M3G3","lat":"43.4392608","lon":"-79.7404448","monday":"12:35-12:45","tuesday":"12:35-12:45","wednesday":"12:35-12:45","thursday":"12:35-12:45","friday":"12:35-12:45","saturday":"12:35-12:45","sunday":"12:35-12:45","branch":"114"},{"id":"115","Transit":"220","region":"PRA","name":"EATON CENTRE/DOWNTOWN","address":"751 3rd St Sw","city":"CALGARY","prov":"AB","postal":"T2P4K8","lat":"51.0469671","lon":"-114.070332","monday":"12:35-12:45","tuesday":"12:35-12:45","wednesday":"12:35-12:45","thursday":"12:35-12:45","friday":"12:35-12:45","saturday":"12:35-12:45","sunday":"12:35-12:45","branch":"115"},{"id":"116","Transit":"221","region":"PRA","name":"DELBURNE RD. & GAETZ AVE. (SOUTH POINTE COMMON)","address":"5001 19th Street, Unit 500","city":"RED DEER","prov":"AB","postal":"T4R3R1","lat":"52.2328764","lon":"-113.813905","monday":"12:35-12:45","tuesday":"12:35-12:45","wednesday":"12:35-12:45","thursday":"12:35-12:45","friday":"12:35-12:45","saturday":"12:35-12:45","sunday":"12:35-12:45","branch":"116"},{"id":"117","Transit":"223","region":"PRA","name":"OLIVER SQ","address":"11550 104th Ave Nw","city":"EDMONTON","prov":"AB","postal":"T5K2S5","lat":"53.5463148","lon":"-113.520881","monday":"12:35-12:45","tuesday":"12:35-12:45","wednesday":"12:35-12:45","thursday":"12:35-12:45","friday":"12:35-12:45","saturday":"12:35-12:45","sunday":"12:35-12:45","branch":"117"},{"id":"118","Transit":"224","region":"WOR","name":"CHARING CROSS","address":"39 King George Rd","city":"BRANTFORD","prov":"ON","postal":"N3R5K2","lat":"43.1639239","lon":"-80.2743614","monday":"12:35-12:45","tuesday":"12:35-12:45","wednesday":"12:35-12:45","thursday":"12:35-12:45","friday":"12:35-12:45","saturday":"12:35-12:45","sunday":"12:35-12:45","branch":"118"},{"id":"119","Transit":"225","region":"PRA","name":"82ND AVE & 83RD","address":"8140 82nd Ave Nw","city":"EDMONTON","prov":"AB","postal":"T6C0Y4","lat":"53.5180984","lon":"-113.454743","monday":"12:35-12:45","tuesday":"12:35-12:45","wednesday":"12:35-12:45","thursday":"12:35-12:45","friday":"12:35-12:45","saturday":"12:35-12:45","sunday":"12:35-12:45","branch":"119"},{"id":"120","Transit":"226","region":"PRA","name":"NORTHWOOD","address":"13711 93 St. NW","city":"EDMONTON","prov":"AB","postal":"T5E5V6","lat":"53.600017","lon":"-113.485017","monday":"12:35-12:45","tuesday":"12:35-12:45","wednesday":"12:35-12:45","thursday":"12:35-12:45","friday":"12:35-12:45","saturday":"12:35-12:45","sunday":"12:35-12:45","branch":"120"},{"id":"121","Transit":"227","region":"WOR","name":"DUNDAS AND BROCK","address":"1000 Dundas St.","city":"WOODSTOCK","prov":"ON","postal":"N4S0A3","lat":"43.1342129","lon":"-80.728265","monday":"12:35-12:45","tuesday":"12:35-12:45","wednesday":"12:35-12:45","thursday":"12:35-12:45","friday":"12:35-12:45","saturday":"12:35-12:45","sunday":"12:35-12:45","branch":"121"},{"id":"122","Transit":"228","region":"PRA","name":"14TH ST NW & NORTHMOUNT","address":"3400 14th St Nw","city":"CALGARY","prov":"AB","postal":"T2K1H9","lat":"51.082303","lon":"-114.094402","monday":"12:35-12:45","tuesday":"12:35-12:45","wednesday":"12:35-12:45","thursday":"12:35-12:45","friday":"12:35-12:45","saturday":"12:35-12:45","sunday":"12:35-12:45","branch":"122"},{"id":"123","Transit":"229","region":"ONE","name":"BANK & HERON","address":"1582 Bank St.","city":"OTTAWA","prov":"ON","postal":"K1H7Z5","lat":"45.3797915","lon":"-75.6682635","monday":"12:35-12:45","tuesday":"12:35-12:45","wednesday":"12:35-12:45","thursday":"12:35-12:45","friday":"12:35-12:45","saturday":"12:35-12:45","sunday":"12:35-12:45","branch":"123"},{"id":"124","Transit":"230","region":"COR","name":"SOUTH COMMON MALL","address":"2220 Burnamthorpe Rd W","city":"MISSISSAUGA","prov":"ON","postal":"L5L5Z5","lat":"43.5456364","lon":"-79.6841947","monday":"12:35-12:45","tuesday":"12:35-12:45","wednesday":"12:35-12:45","thursday":"12:35-12:45","friday":"12:35-12:45","saturday":"12:35-12:45","sunday":"12:35-12:45","branch":"124"},{"id":"125","Transit":"231","region":"GTA","name":"ISLINGTON & NORSMAN","address":"1048 Islington Ave","city":"ETOBICOKE","prov":"ON","postal":"M8Z4R6","lat":"43.6341959","lon":"-79.5190639","monday":"12:35-12:45","tuesday":"12:35-12:45","wednesday":"12:35-12:45","thursday":"12:35-12:45","friday":"12:35-12:45","saturday":"12:35-12:45","sunday":"12:35-12:45","branch":"125"},{"id":"126","Transit":"233","region":"GTA","name":"NORTHTOWN","address":"5400 Yonge St","city":"NORTH YORK","prov":"ON","postal":"M2N5R5","lat":"43.7747863","lon":"-79.4145122","monday":"12:35-12:45","tuesday":"12:35-12:45","wednesday":"12:35-12:45","thursday":"12:35-12:45","friday":"12:35-12:45","saturday":"12:35-12:45","sunday":"12:35-12:45","branch":"126"},{"id":"127","Transit":"234","region":"PAC","name":"LOUGHEED & WESTWOOD","address":"11-2755 Lougheed Hwy","city":"PORT COQUITLAM","prov":"BC","postal":"V3B5Y9","lat":"49.2739257","lon":"-122.788091","monday":"12:35-12:45","tuesday":"12:35-12:45","wednesday":"12:35-12:45","thursday":"12:35-12:45","friday":"12:35-12:45","saturday":"12:35-12:45","sunday":"12:35-12:45","branch":"127"},{"id":"128","Transit":"235","region":"GTA","name":"BLOOR & JOPLING","address":"3868 Bloor St W","city":"ETOBICOKE","prov":"ON","postal":"M9B1L3","lat":"43.6411075","lon":"-79.5397281","monday":"12:35-12:45","tuesday":"12:35-12:45","wednesday":"12:35-12:45","thursday":"12:35-12:45","friday":"12:35-12:45","saturday":"12:35-12:45","sunday":"12:35-12:45","branch":"128"},{"id":"129","Transit":"236","region":"WOR","name":"BASELINE & WELLINGTON","address":"353 Wellington Rd","city":"LONDON","prov":"ON","postal":"N6C4P8","lat":"42.9620401","lon":"-81.2316795","monday":"12:35-12:45","tuesday":"12:35-12:45","wednesday":"12:35-12:45","thursday":"12:35-12:45","friday":"12:35-12:45","saturday":"12:35-12:45","sunday":"12:35-12:45","branch":"129"},{"id":"130","Transit":"237","region":"COR","name":"KING & ROSEDALE","address":"1900 King St E","city":"HAMILTON","prov":"ON","postal":"L8K1W1","lat":"43.2316693","lon":"-79.8076769","monday":"12:35-12:45","tuesday":"12:35-12:45","wednesday":"12:35-12:45","thursday":"12:35-12:45","friday":"12:35-12:45","saturday":"12:35-12:45","sunday":"12:35-12:45","branch":"130"},{"id":"131","Transit":"238","region":"PRA","name":"156TH ST LYNWOOD","address":"8705 156th St","city":"EDMONTON","prov":"AB","postal":"T5R1Y5","lat":"53.5197034","lon":"-113.590224","monday":"12:35-12:45","tuesday":"12:35-12:45","wednesday":"12:35-12:45","thursday":"12:35-12:45","friday":"12:35-12:45","saturday":"12:35-12:45","sunday":"12:35-12:45","branch":"131"},{"id":"132","Transit":"239","region":"COR","name":"BURLINGTON PLAINS ROAD","address":"596 Plains Rd","city":"BURLINGTON","prov":"ON","postal":"L7T2E7","lat":"43.3213473","lon":"-79.8332114","monday":"12:35-12:45","tuesday":"12:35-12:45","wednesday":"12:35-12:45","thursday":"12:35-12:45","friday":"12:35-12:45","saturday":"12:35-12:45","sunday":"12:35-12:45","branch":"132"},{"id":"133","Transit":"240","region":"WOR","name":"LONDON CLARKE RD","address":"1920 Dundas St","city":"LONDON","prov":"ON","postal":"N5V3P1","lat":"43.0052337","lon":"-81.1740569","monday":"12:35-12:45","tuesday":"12:35-12:45","wednesday":"12:35-12:45","thursday":"12:35-12:45","friday":"12:35-12:45","saturday":"12:35-12:45","sunday":"12:35-12:45","branch":"133"},{"id":"134","Transit":"241","region":"GTA","name":"SHOPS AT DON MILLS","address":"15 Clock Tower Road","city":"NORTH YORK","prov":"ON","postal":"M3C0E1","lat":"43.7334228","lon":"-79.3459038","monday":"12:35-12:45","tuesday":"12:35-12:45","wednesday":"12:35-12:45","thursday":"12:35-12:45","friday":"12:35-12:45","saturday":"12:35-12:45","sunday":"12:35-12:45","branch":"134"},{"id":"135","Transit":"244","region":"WOR","name":"NEW HAMBURG","address":"114 Huron St","city":"NEW HAMBURG","prov":"ON","postal":"N3A1J3","lat":"43.3783592","lon":"-80.711875","monday":"12:35-12:45","tuesday":"12:35-12:45","wednesday":"12:35-12:45","thursday":"12:35-12:45","friday":"12:35-12:45","saturday":"12:35-12:45","sunday":"12:35-12:45","branch":"135"},{"id":"136","Transit":"249","region":"ONE","name":"PRETORIA AVE & THE DRIVEWAY","address":"5 Pretoria Ave","city":"OTTAWA","prov":"ON","postal":"K1S5L6","lat":"45.4108487","lon":"-75.6845642","monday":"12:35-12:45","tuesday":"12:35-12:45","wednesday":"12:35-12:45","thursday":"12:35-12:45","friday":"12:35-12:45","saturday":"12:35-12:45","sunday":"12:35-12:45","branch":"136"},{"id":"137","Transit":"250","region":"COR","name":"MOHAWK & MAGNOLIA","address":"781 Mohawk Rd W","city":"HAMILTON","prov":"ON","postal":"L9C7B7","lat":"43.2331757","lon":"-79.9219064","monday":"12:35-12:45","tuesday":"12:35-12:45","wednesday":"12:35-12:45","thursday":"12:35-12:45","friday":"12:35-12:45","saturday":"12:35-12:45","sunday":"12:35-12:45","branch":"137"},{"id":"138","Transit":"251","region":"GTA","name":"ISLINGTON & RATHBURN","address":"1498 Islington Ave","city":"ETOBICOKE","prov":"ON","postal":"M9A3L7","lat":"43.6626506","lon":"-79.5312334","monday":"12:35-12:45","tuesday":"12:35-12:45","wednesday":"12:35-12:45","thursday":"12:35-12:45","friday":"12:35-12:45","saturday":"12:35-12:45","sunday":"12:35-12:45","branch":"138"},{"id":"139","Transit":"252","region":"GTA","name":"AVENUE RD & BROOKDALE","address":"1677 Avenue Road","city":"TORONTO","prov":"ON","postal":"M5M3Y3","lat":"43.7273796","lon":"-79.4174992","monday":"12:35-12:45","tuesday":"12:35-12:45","wednesday":"12:35-12:45","thursday":"12:35-12:45","friday":"12:35-12:45","saturday":"12:35-12:45","sunday":"12:35-12:45","branch":"139"},{"id":"140","Transit":"253","region":"GTA","name":"KINGSTON ROAD & FENWOOD","address":"3115 Kingston Rd","city":"SCARBOROUGH","prov":"ON","postal":"M1M1P3","lat":"43.7274026","lon":"-79.2296276","monday":"12:35-12:45","tuesday":"12:35-12:45","wednesday":"12:35-12:45","thursday":"12:35-12:45","friday":"12:35-12:45","saturday":"12:35-12:45","sunday":"12:35-12:45","branch":"140"},{"id":"141","Transit":"255","region":"GTA","name":"BAYVIEW & MILLWOOD (Leaside)","address":"1511 Bayview Ave","city":"TORONTO","prov":"ON","postal":"M4G4E2","lat":"","lon":"","monday":"12:35-12:45","tuesday":"12:35-12:45","wednesday":"12:35-12:45","thursday":"12:35-12:45","friday":"12:35-12:45","saturday":"12:35-12:45","sunday":"12:35-12:45","branch":"141"},{"id":"142","Transit":"256","region":"WOR","name":"MASONVILLE","address":"1663 Richmond St","city":"LONDON","prov":"ON","postal":"N6G2N3","lat":"43.025137","lon":"-81.2818456","monday":"12:35-12:45","tuesday":"12:35-12:45","wednesday":"12:35-12:45","thursday":"12:35-12:45","friday":"12:35-12:45","saturday":"12:35-12:45","sunday":"12:35-12:45","branch":"142"},{"id":"143","Transit":"258","region":"PRA","name":"GLENMORE LANDING","address":"C143 1600 90th Ave Sw","city":"CALGARY","prov":"AB","postal":"T2V5A8","lat":"50.9731904","lon":"-114.097555","monday":"12:35-12:45","tuesday":"12:35-12:45","wednesday":"12:35-12:45","thursday":"12:35-12:45","friday":"12:35-12:45","saturday":"12:35-12:45","sunday":"12:35-12:45","branch":"143"},{"id":"144","Transit":"259","region":"PAC","name":"FORT & FOUL BAY RDS","address":"2000 Cadboro Bay Rd","city":"VICTORIA","prov":"BC","postal":"V8R5G5","lat":"48.4324624","lon":"-123.321245","monday":"12:35-12:45","tuesday":"12:35-12:45","wednesday":"12:35-12:45","thursday":"12:35-12:45","friday":"12:35-12:45","saturday":"12:35-12:45","sunday":"12:35-12:45","branch":"144"},{"id":"145","Transit":"261","region":"COR","name":"LAKESHORE & LAKE","address":"37 Lakeshore Rd","city":"ST CATHARINES","prov":"ON","postal":"L2N2T2","lat":"43.2006403","lon":"-79.2509728","monday":"12:35-12:45","tuesday":"12:35-12:45","wednesday":"12:35-12:45","thursday":"12:35-12:45","friday":"12:35-12:45","saturday":"12:35-12:45","sunday":"12:35-12:45","branch":"145"},{"id":"146","Transit":"262","region":"GTA","name":"WOODBINE CENTRE","address":"500 Rexdale Blvd","city":"ETOBICOKE","prov":"ON","postal":"M9W6K5","lat":"43.720006","lon":"-79.6005032","monday":"12:35-12:45","tuesday":"12:35-12:45","wednesday":"12:35-12:45","thursday":"12:35-12:45","friday":"12:35-12:45","saturday":"12:35-12:45","sunday":"12:35-12:45","branch":"146"},{"id":"147","Transit":"265","region":"GTA","name":"SHEPPARD & LONGMORE","address":"312 Sheppard Ave E","city":"NORTH YORK","prov":"ON","postal":"M2N3B4","lat":"43.7646005","lon":"-79.3969316","monday":"12:35-12:45","tuesday":"12:35-12:45","wednesday":"12:35-12:45","thursday":"12:35-12:45","friday":"12:35-12:45","saturday":"12:35-12:45","sunday":"12:35-12:45","branch":"147"},{"id":"148","Transit":"268","region":"ONE","name":"CARLING & FAIRTAWN","address":"2154 Carling Ave","city":"OTTAWA","prov":"ON","postal":"K2A1H1","lat":"45.3702148","lon":"-75.770342","monday":"12:35-12:45","tuesday":"12:35-12:45","wednesday":"12:35-12:45","thursday":"12:35-12:45","friday":"12:35-12:45","saturday":"12:35-12:45","sunday":"12:35-12:45","branch":"148"},{"id":"149","Transit":"269","region":"PAC","name":"WEST BROADWAY","address":"3396 West Broadway","city":"VANCOUVER","prov":"BC","postal":"V6R2B2","lat":"49.2639658","lon":"-123.179479","monday":"12:35-12:45","tuesday":"12:35-12:45","wednesday":"12:35-12:45","thursday":"12:35-12:45","friday":"12:35-12:45","saturday":"12:35-12:45","sunday":"12:35-12:45","branch":"149"},{"id":"150","Transit":"270","region":"WOR","name":"ERB WEST & HALLMAN","address":"460 Erb Street West","city":"WATERLOO","prov":"ON","postal":"N2T1N5","lat":"43.4515955","lon":"-80.5564578","monday":"12:35-12:45","tuesday":"12:35-12:45","wednesday":"12:35-12:45","thursday":"12:35-12:45","friday":"12:35-12:45","saturday":"12:35-12:45","sunday":"12:35-12:45","branch":"150"},{"id":"151","Transit":"271","region":"ONE","name":"CONVENT GLEN SHOPPING CENTRE","address":"6489 Jeanne D'Arc Blvd","city":"ORLEANS","prov":"ON","postal":"K1C2R1","lat":"45.4790388","lon":"-75.5367723","monday":"12:35-12:45","tuesday":"12:35-12:45","wednesday":"12:35-12:45","thursday":"12:35-12:45","friday":"12:35-12:45","saturday":"12:35-12:45","sunday":"12:35-12:45","branch":"151"},{"id":"152","Transit":"272","region":"GTA","name":"PICKERING","address":"1794 Liverpool Rd","city":"PICKERING","prov":"ON","postal":"L1V1V9","lat":"43.8351687","lon":"-79.090369","monday":"12:35-12:45","tuesday":"12:35-12:45","wednesday":"12:35-12:45","thursday":"12:35-12:45","friday":"12:35-12:45","saturday":"12:35-12:45","sunday":"12:35-12:45","branch":"152"},{"id":"153","Transit":"273","region":"GTA","name":"WHITBY","address":"80 Thickson Rd S","city":"WHITBY","prov":"ON","postal":"L1N7T2","lat":"43.8833719","lon":"-78.9133358","monday":"12:35-12:45","tuesday":"12:35-12:45","wednesday":"12:35-12:45","thursday":"12:35-12:45","friday":"12:35-12:45","saturday":"12:35-12:45","sunday":"12:35-12:45","branch":"153"},{"id":"154","Transit":"274","region":"PAC","name":"YALE RD & KIPP","address":"46017 Yale Rd","city":"CHILLIWACK","prov":"BC","postal":"V2P2M1","lat":"49.1697596","lon":"-121.955132","monday":"12:35-12:45","tuesday":"12:35-12:45","wednesday":"12:35-12:45","thursday":"12:35-12:45","friday":"12:35-12:45","saturday":"12:35-12:45","sunday":"12:35-12:45","branch":"154"},{"id":"155","Transit":"275","region":"PAC","name":"120TH ST & 72ND AVE","address":"7317 120th St","city":"DELTA","prov":"BC","postal":"V4C6P5","lat":"49.1365593","lon":"-122.891510","monday":"12:35-12:45","tuesday":"12:35-12:45","wednesday":"12:35-12:45","thursday":"12:35-12:45","friday":"12:35-12:45","saturday":"12:35-12:45","sunday":"12:35-12:45","branch":"155"},{"id":"156","Transit":"276","region":"PAC","name":"301 VICTORIA","address":"102 - 301 Victoria St W","city":"KAMLOOPS","prov":"BC","postal":"V2C2A3","lat":"50.6791844","lon":"-120.349901","monday":"12:35-12:45","tuesday":"12:35-12:45","wednesday":"12:35-12:45","thursday":"12:35-12:45","friday":"12:35-12:45","saturday":"12:35-12:45","sunday":"12:35-12:45","branch":"156"},{"id":"157","Transit":"277","region":"PAC","name":"BERNARD & ELLIS","address":"100-1633 Ellis St","city":"KELOWNA","prov":"BC","postal":"V1Y2A8","lat":"49.8845283","lon":"-119.493499","monday":"12:35-12:45","tuesday":"12:35-12:45","wednesday":"12:35-12:45","thursday":"12:35-12:45","friday":"12:35-12:45","saturday":"12:35-12:45","sunday":"12:35-12:45","branch":"157"},{"id":"158","Transit":"281","region":"PAC","name":"LANSDOWNE PARK MALL","address":"626 - 5300 No. 3 Road","city":"RICHMOND","prov":"BC","postal":"V6X2X9","lat":"49.1759957","lon":"-123.136497","monday":"12:35-12:45","tuesday":"12:35-12:45","wednesday":"12:35-12:45","thursday":"12:35-12:45","friday":"12:35-12:45","saturday":"12:35-12:45","sunday":"12:35-12:45","branch":"158"},{"id":"159","Transit":"287","region":"PAC","name":"SHELBOURNE PLAZA","address":"3675 Shelbourne St","city":"VICTORIA","prov":"BC","postal":"V8P4H1","lat":"48.4608157","lon":"-123.332453","monday":"12:35-12:45","tuesday":"12:35-12:45","wednesday":"12:35-12:45","thursday":"12:35-12:45","friday":"12:35-12:45","saturday":"12:35-12:45","sunday":"12:35-12:45","branch":"159"},{"id":"160","Transit":"290","region":"PRA","name":"BEDDINGTON BLVD & CENTRE ST","address":"8118 Beddington Blvd Nw","city":"CALGARY","prov":"AB","postal":"T3K2R6","lat":"51.1252853","lon":"-114.072985","monday":"12:35-12:45","tuesday":"12:35-12:45","wednesday":"12:35-12:45","thursday":"12:35-12:45","friday":"12:35-12:45","saturday":"12:35-12:45","sunday":"12:35-12:45","branch":"160"},{"id":"161","Transit":"291","region":"PRA","name":"BRENTWOOD VILLAGE","address":"10-3630 Brentwood Rd Nw","city":"CALGARY","prov":"AB","postal":"T2L1K8","lat":"51.0850553","lon":"-114.123530","monday":"12:35-12:45","tuesday":"12:35-12:45","wednesday":"12:35-12:45","thursday":"12:35-12:45","friday":"12:35-12:45","saturday":"12:35-12:45","sunday":"12:35-12:45","branch":"161"},{"id":"162","Transit":"293","region":"PRA","name":"LONDON TOWNE SQUARE","address":"3545 32nd Ave","city":"CALGARY","prov":"AB","postal":"T1Y6M6","lat":"51.0814468","lon":"-113.985685","monday":"12:35-12:45","tuesday":"12:35-12:45","wednesday":"12:35-12:45","thursday":"12:35-12:45","friday":"12:35-12:45","saturday":"12:35-12:45","sunday":"12:35-12:45","branch":"162"},{"id":"163","Transit":"296","region":"PRA","name":"EDMONTON CENTURY PARK","address":"2325-111 Street NW","city":"EDMONTON","prov":"AB","postal":"T6J5E5","lat":"53.4551833","lon":"-113.516126","monday":"12:35-12:45","tuesday":"12:35-12:45","wednesday":"12:35-12:45","thursday":"12:35-12:45","friday":"12:35-12:45","saturday":"12:35-12:45","sunday":"12:35-12:45","branch":"163"},{"id":"164","Transit":"307","region":"COR","name":"NEWMARKET","address":"130 Davis Drive","city":"NEWMARKET","prov":"ON","postal":"L3Y2N1","lat":"44.0544172","lon":"-79.474707","monday":"12:35-12:45","tuesday":"12:35-12:45","wednesday":"12:35-12:45","thursday":"12:35-12:45","friday":"12:35-12:45","saturday":"12:35-12:45","sunday":"12:35-12:45","branch":"164"},{"id":"165","Transit":"308","region":"WOR","name":"TOWN CENTRE MALL","address":"200 Broadway Street","city":"TILLSONBURG","prov":"ON","postal":"N4G5A7","lat":"42.8622077","lon":"-80.729452","monday":"12:35-12:45","tuesday":"12:35-12:45","wednesday":"12:35-12:45","thursday":"12:35-12:45","friday":"12:35-12:45","saturday":"12:35-12:45","sunday":"12:35-12:45","branch":"165"},{"id":"166","Transit":"309","region":"WOR","name":"WOODSTOCK","address":"539 Dundas St","city":"WOODSTOCK","prov":"ON","postal":"N4S1C6","lat":"43.1305072","lon":"-80.7546885","monday":"12:35-12:45","tuesday":"12:35-12:45","wednesday":"12:35-12:45","thursday":"12:35-12:45","friday":"12:35-12:45","saturday":"12:35-12:45","sunday":"12:35-12:45","branch":"166"},{"id":"167","Transit":"310","region":"COR","name":"BRAMPTON BRICKYARD","address":"130 Brickyard Way","city":"BRAMPTON","prov":"ON","postal":"L6V4N1","lat":"43.7010304","lon":"-79.7797881","monday":"12:35-12:45","tuesday":"12:35-12:45","wednesday":"12:35-12:45","thursday":"12:35-12:45","friday":"12:35-12:45","saturday":"12:35-12:45","sunday":"12:35-12:45","branch":"167"},{"id":"168","Transit":"311","region":"COR","name":"MISSISSAUGA VALLEY","address":"1585 Mississauga Valley","city":"MISSISSAUGA","prov":"ON","postal":"L5A3W9","lat":"43.5923765","lon":"-79.6264669","monday":"12:35-12:45","tuesday":"12:35-12:45","wednesday":"12:35-12:45","thursday":"12:35-12:45","friday":"12:35-12:45","saturday":"12:35-12:45","sunday":"12:35-12:45","branch":"168"},{"id":"169","Transit":"314","region":"ONE","name":"PORT HOPE","address":"113 Walton St","city":"PORT HOPE","prov":"ON","postal":"L1A1N4","lat":"43.9518691","lon":"-78.2955245","monday":"12:35-12:45","tuesday":"12:35-12:45","wednesday":"12:35-12:45","thursday":"12:35-12:45","friday":"12:35-12:45","saturday":"12:35-12:45","sunday":"12:35-12:45","branch":"169"},{"id":"170","Transit":"315","region":"COR","name":"THORNHILL MAIN","address":"2900 Steeles Ave. East, Unit 35","city":"THORNHILL","prov":"ON","postal":"L3T4X1","lat":"43.7944262","lon":"-79.4365512","monday":"12:35-12:45","tuesday":"12:35-12:45","wednesday":"12:35-12:45","thursday":"12:35-12:45","friday":"12:35-12:45","saturday":"12:35-12:45","sunday":"12:35-12:45","branch":"170"},{"id":"171","Transit":"316","region":"COR","name":"THORNHILL YONGE","address":"7967 Yonge St","city":"THORNHILL","prov":"ON","postal":"L3T2C4","lat":"43.8222915","lon":"-79.4253473","monday":"12:35-12:45","tuesday":"12:35-12:45","wednesday":"12:35-12:45","thursday":"12:35-12:45","friday":"12:35-12:45","saturday":"12:35-12:45","sunday":"12:35-12:45","branch":"171"},{"id":"172","Transit":"320","region":"GTA","name":"YONGE & IMPERIAL","address":"1966 Yonge St.","city":"TORONTO","prov":"ON","postal":"M4S1Z4","lat":"43.6997831","lon":"-79.3968931","monday":"12:35-12:45","tuesday":"12:35-12:45","wednesday":"12:35-12:45","thursday":"12:35-12:45","friday":"12:35-12:45","saturday":"12:35-12:45","sunday":"12:35-12:45","branch":"172"},{"id":"173","Transit":"321","region":"COR","name":"DUFFERIN & STEELES","address":"Unit 1, 1881 Steeles Ave. W.","city":"NORTH YORK","prov":"ON","postal":"M3H5Y4","lat":"43.7873477","lon":"-79.4690267","monday":"12:35-12:45","tuesday":"12:35-12:45","wednesday":"12:35-12:45","thursday":"12:35-12:45","friday":"12:35-12:45","saturday":"12:35-12:45","sunday":"12:35-12:45","branch":"173"},{"id":"174","Transit":"324","region":"GTA","name":"ELLESMERE & VICTORIA PARK","address":"85 Ellesmere Rd","city":"SCARBOROUGH","prov":"ON","postal":"M1R4B7","lat":"43.7583953","lon":"-79.3138975","monday":"12:35-12:45","tuesday":"12:35-12:45","wednesday":"12:35-12:45","thursday":"12:35-12:45","friday":"12:35-12:45","saturday":"12:35-12:45","sunday":"12:35-12:45","branch":"174"},{"id":"175","Transit":"326","region":"GTA","name":"BLOOR & JACKSON","address":"2972 Bloor St W","city":"ETOBICOKE","prov":"ON","postal":"M8X1B9","lat":"43.6478909","lon":"-79.508071","monday":"12:35-12:45","tuesday":"12:35-12:45","wednesday":"12:35-12:45","thursday":"12:35-12:45","friday":"12:35-12:45","saturday":"12:35-12:45","sunday":"12:35-12:45","branch":"175"},{"id":"176","Transit":"327","region":"GTA","name":"KENNEDY COMMONS MALL","address":"26 William Kitchen Rd","city":"SCARBOROUGH","prov":"ON","postal":"M1P5B7","lat":"43.7728657","lon":"-79.2811491","monday":"12:35-12:45","tuesday":"12:35-12:45","wednesday":"12:35-12:45","thursday":"12:35-12:45","friday":"12:35-12:45","saturday":"12:35-12:45","sunday":"12:35-12:45","branch":"176"},{"id":"177","Transit":"328","region":"GTA","name":"BATHURST & LAWRENCE","address":"3114 Bathurst St","city":"TORONTO","prov":"ON","postal":"M6A2A1","lat":"43.7207114","lon":"-79.4302466","monday":"12:35-12:45","tuesday":"12:35-12:45","wednesday":"12:35-12:45","thursday":"12:35-12:45","friday":"12:35-12:45","saturday":"12:35-12:45","sunday":"12:35-12:45","branch":"177"},{"id":"178","Transit":"329","region":"GTA","name":"LAWRENCE & MARKHAM ROAD","address":"680 Markham Rd","city":"SCARBOROUGH","prov":"ON","postal":"M1H2A7","lat":"43.7615027","lon":"-79.2262585","monday":"12:35-12:45","tuesday":"12:35-12:45","wednesday":"12:35-12:45","thursday":"12:35-12:45","friday":"12:35-12:45","saturday":"12:35-12:45","sunday":"12:35-12:45","branch":"178"},{"id":"179","Transit":"330","region":"GTA","name":"FINCH & MCCOWAN","address":"1571 Sandhurst Circle","city":"SCARBOROUGH","prov":"ON","postal":"M1V1V2","lat":"43.8088942","lon":"-79.2698542","monday":"12:35-12:45","tuesday":"12:35-12:45","wednesday":"12:35-12:45","thursday":"12:35-12:45","friday":"12:35-12:45","saturday":"12:35-12:45","sunday":"12:35-12:45","branch":"179"},{"id":"180","Transit":"331","region":"GTA","name":"BURNHAMTHORPE & SATURN","address":"666 Burnhamthorpe Rd","city":"ETOBICOKE","prov":"ON","postal":"M9C2Z4","lat":"43.6415313","lon":"-79.5764416","monday":"12:35-12:45","tuesday":"12:35-12:45","wednesday":"12:35-12:45","thursday":"12:35-12:45","friday":"12:35-12:45","saturday":"12:35-12:45","sunday":"12:35-12:45","branch":"180"},{"id":"181","Transit":"334","region":"COR","name":"RATHBURN & TOMKEN","address":"925 Rathburn Rd E","city":"MISSISSAUGA","prov":"ON","postal":"L4W4C3","lat":"43.6148435","lon":"-79.6176173","monday":"12:35-12:45","tuesday":"12:35-12:45","wednesday":"12:35-12:45","thursday":"12:35-12:45","friday":"12:35-12:45","saturday":"12:35-12:45","sunday":"12:35-12:45","branch":"181"},{"id":"182","Transit":"335","region":"GTA","name":"WESTON ROAD & LAWRENCE","address":"1979 Weston Rd","city":"NORTH YORK","prov":"ON","postal":"M9N1W8","lat":"43.7010508","lon":"-79.5192622","monday":"12:35-12:45","tuesday":"12:35-12:45","wednesday":"12:35-12:45","thursday":"12:35-12:45","friday":"12:35-12:45","saturday":"12:35-12:45","sunday":"12:35-12:45","branch":"182"},{"id":"183","Transit":"337","region":"GTA","name":"BAYVIEW & YORK MILLS","address":"2518 Bayview Ave","city":"TORONTO","prov":"ON","postal":"M2L1A9","lat":"43.7467125","lon":"-79.3839007","monday":"12:35-12:45","tuesday":"12:35-12:45","wednesday":"12:35-12:45","thursday":"12:35-12:45","friday":"12:35-12:45","saturday":"12:35-12:45","sunday":"12:35-12:45","branch":"183"},{"id":"184","Transit":"338","region":"GTA","name":"YORKDALE SHOPPING CENTRE","address":"3401 Dufferin Street","city":"TORONTO","prov":"ON","postal":"M6A2T9","lat":"43.7258222","lon":"-79.4555263","monday":"12:35-12:45","tuesday":"12:35-12:45","wednesday":"12:35-12:45","thursday":"12:35-12:45","friday":"12:35-12:45","saturday":"12:35-12:45","sunday":"12:35-12:45","branch":"184"},{"id":"185","Transit":"339","region":"COR","name":"UNIONVILLE","address":"4681 Hwy 7","city":"MARKHAM","prov":"ON","postal":"L3R1M6","lat":"43.8626632","lon":"-79.303634","monday":"12:35-12:45","tuesday":"12:35-12:45","wednesday":"12:35-12:45","thursday":"12:35-12:45","friday":"12:35-12:45","saturday":"12:35-12:45","sunday":"12:35-12:45","branch":"185"},{"id":"186","Transit":"340","region":"WOR","name":"MARKET & DARLING","address":"70 Market St","city":"BRANTFORD","prov":"ON","postal":"N3T2Z7","lat":"43.140719","lon":"-80.26377","monday":"12:35-12:45","tuesday":"12:35-12:45","wednesday":"12:35-12:45","thursday":"12:35-12:45","friday":"12:35-12:45","saturday":"12:35-12:45","sunday":"12:35-12:45","branch":"186"},{"id":"187","Transit":"341","region":"WOR","name":"FAIRVIEW DR & WEST","address":"444 Fairview Dr","city":"BRANTFORD","prov":"ON","postal":"N3R2X8","lat":"43.1725262","lon":"-80.2470261","monday":"12:35-12:45","tuesday":"12:35-12:45","wednesday":"12:35-12:45","thursday":"12:35-12:45","friday":"12:35-12:45","saturday":"12:35-12:45","sunday":"12:35-12:45","branch":"187"},{"id":"188","Transit":"342","region":"COR","name":"BRANT & UPPER MIDDLE","address":"2222 Brant St.","city":"BURLINGTON","prov":"ON","postal":"L7P4L5","lat":"43.3571573","lon":"-79.8441276","monday":"12:35-12:45","tuesday":"12:35-12:45","wednesday":"12:35-12:45","thursday":"12:35-12:45","friday":"12:35-12:45","saturday":"12:35-12:45","sunday":"12:35-12:45","branch":"188"},{"id":"189","Transit":"343","region":"COR","name":"BURLINGTON EILEEN","address":"500 Guelph Line","city":"BURLINGTON","prov":"ON","postal":"L7R3M4","lat":"43.3395113","lon":"-79.7875097","monday":"12:35-12:45","tuesday":"12:35-12:45","wednesday":"12:35-12:45","thursday":"12:35-12:45","friday":"12:35-12:45","saturday":"12:35-12:45","sunday":"12:35-12:45","branch":"189"},{"id":"190","Transit":"346","region":"COR","name":"KING & CLINE","address":"938 King St W","city":"HAMILTON","prov":"ON","postal":"L8S1K8","lat":"43.2632622","lon":"-79.903128","monday":"12:35-12:45","tuesday":"12:35-12:45","wednesday":"12:35-12:45","thursday":"12:35-12:45","friday":"12:35-12:45","saturday":"12:35-12:45","sunday":"12:35-12:45","branch":"190"},{"id":"191","Transit":"350","region":"COR","name":"HWY. # 8 & GREEN ROAD","address":"267 Hwy. #8","city":"STONEY CREEK","prov":"ON","postal":"L8G1E4","lat":"43.2211246","lon":"-79.7337161","monday":"12:35-12:45","tuesday":"12:35-12:45","wednesday":"12:35-12:45","thursday":"12:35-12:45","friday":"12:35-12:45","saturday":"12:35-12:45","sunday":"12:35-12:45","branch":"191"},{"id":"192","Transit":"352","region":"ONE","name":"KING W & HOME","address":"133 King St W","city":"BROCKVILLE","prov":"ON","postal":"K6V6Z1","lat":"44.588129","lon":"-75.6865762","monday":"12:35-12:45","tuesday":"12:35-12:45","wednesday":"12:35-12:45","thursday":"12:35-12:45","friday":"12:35-12:45","saturday":"12:35-12:45","sunday":"12:35-12:45","branch":"192"},{"id":"193","Transit":"353","region":"ONE","name":"MERIVALE MALL","address":"1642 Merivale Road","city":"NEPEAN","prov":"ON","postal":"K2G4A1","lat":"45.3445344","lon":"-75.7314121","monday":"12:35-12:45","tuesday":"12:35-12:45","wednesday":"12:35-12:45","thursday":"12:35-12:45","friday":"12:35-12:45","saturday":"12:35-12:45","sunday":"12:35-12:45","branch":"193"},{"id":"194","Transit":"354","region":"ONE","name":"WORLD EXCHANGE PLAZA","address":"45 O'Connor St","city":"OTTAWA","prov":"ON","postal":"K1P1A4","lat":"45.4211126","lon":"-75.6985796","monday":"12:35-12:45","tuesday":"12:35-12:45","wednesday":"12:35-12:45","thursday":"12:35-12:45","friday":"12:35-12:45","saturday":"12:35-12:45","sunday":"12:35-12:45","branch":"194"},{"id":"195","Transit":"355","region":"ONE","name":"CAMBRIAN MALL","address":"44 Great Northern Road","city":"SAULT STE MARIE","prov":"ON","postal":"P6B4Y5","lat":"46.5250665","lon":"-84.3193934","monday":"12:35-12:45","tuesday":"12:35-12:45","wednesday":"12:35-12:45","thursday":"12:35-12:45","friday":"12:35-12:45","saturday":"12:35-12:45","sunday":"12:35-12:45","branch":"195"},{"id":"196","Transit":"359","region":"QUE","name":"QUEEN MARY","address":"5409 Ch Queen Mary","city":"MONTREAL","prov":"QC","postal":"H3X1V1","lat":"45.4821647","lon":"-73.6306761","monday":"12:35-12:45","tuesday":"12:35-12:45","wednesday":"12:35-12:45","thursday":"12:35-12:45","friday":"12:35-12:45","saturday":"12:35-12:45","sunday":"12:35-12:45","branch":"196"},{"id":"197","Transit":"360","region":"QUE","name":"POINTE CLAIRE","address":"203 Hymus Blvd","city":"POINTE CLAIRE","prov":"QC","postal":"H9R1E9","lat":"45.4601861","lon":"-73.8204995","monday":"12:35-12:45","tuesday":"12:35-12:45","wednesday":"12:35-12:45","thursday":"12:35-12:45","friday":"12:35-12:45","saturday":"12:35-12:45","sunday":"12:35-12:45","branch":"197"},{"id":"198","Transit":"361","region":"QUE","name":"ST-LAURENT PLACE VERTU ","address":"3131 Cote Vertu","city":"ST-LAURENT","prov":"QC","postal":"H4R1Y8","lat":"45.4969931","lon":"-73.7045723","monday":"12:35-12:45","tuesday":"12:35-12:45","wednesday":"12:35-12:45","thursday":"12:35-12:45","friday":"12:35-12:45","saturday":"12:35-12:45","sunday":"12:35-12:45","branch":"198"},{"id":"199","Transit":"364","region":"ATL","name":"PORTLAND & BAKER","address":"590 Portland St","city":"DARTMOUTH","prov":"NS","postal":"B2W6B7","lat":"44.6708473","lon":"-63.531434","monday":"12:35-12:45","tuesday":"12:35-12:45","wednesday":"12:35-12:45","thursday":"12:35-12:45","friday":"12:35-12:45","saturday":"12:35-12:45","sunday":"12:35-12:45","branch":"199"},{"id":"200","Transit":"367","region":"ATL","name":"KING ST & CUMBERLAND","address":"36 King St","city":"LUNENBURG","prov":"NS","postal":"B0J2C0","lat":"44.3776618","lon":"-64.3095851","monday":"12:35-12:45","tuesday":"12:35-12:45","wednesday":"12:35-12:45","thursday":"12:35-12:45","friday":"12:35-12:45","saturday":"12:35-12:45","sunday":"12:35-12:45","branch":"200"},{"id":"201","Transit":"371","region":"ATL","name":"CHARLOTTE ST & PITT","address":"292 Charlotte St","city":"SYDNEY","prov":"NS","postal":"B1P1C7","lat":"46.1386782","lon":"-60.1948099","monday":"12:35-12:45","tuesday":"12:35-12:45","wednesday":"12:35-12:45","thursday":"12:35-12:45","friday":"12:35-12:45","saturday":"12:35-12:45","sunday":"12:35-12:45","branch":"201"},{"id":"202","Transit":"372","region":"WOR","name":"HANOVER","address":"297 10th Street","city":"HANOVER","prov":"ON","postal":"N4N1P1","lat":"44.1519587","lon":"-81.0277505","monday":"12:35-12:45","tuesday":"12:35-12:45","wednesday":"12:35-12:45","thursday":"12:35-12:45","friday":"12:35-12:45","saturday":"12:35-12:45","sunday":"12:35-12:45","branch":"202"},{"id":"203","Transit":"374","region":"GTA","name":"DANFORTH & WOODINGTON","address":"1684 Danforth Ave","city":"TORONTO","prov":"ON","postal":"M4C1H6","lat":"43.6839096","lon":"-79.3211914","monday":"12:35-12:45","tuesday":"12:35-12:45","wednesday":"12:35-12:45","thursday":"12:35-12:45","friday":"12:35-12:45","saturday":"12:35-12:45","sunday":"12:35-12:45","branch":"203"},{"id":"204","Transit":"375","region":"GTA","name":"BLOOR & WINDERMERE","address":"2220 Bloor St. W.","city":"TORONTO","prov":"ON","postal":"M6S1N6","lat":"43.6511678","lon":"-79.4763817","monday":"12:35-12:45","tuesday":"12:35-12:45","wednesday":"12:35-12:45","thursday":"12:35-12:45","friday":"12:35-12:45","saturday":"12:35-12:45","sunday":"12:35-12:45","branch":"204"},{"id":"205","Transit":"377","region":"PAC","name":"MARINE DR & BRIDGEMAN","address":"1315 Marine Dr","city":"NORTH VANCOUVER","prov":"BC","postal":"V7P3E5","lat":"49.3238925","lon":"-123.111169","monday":"12:35-12:45","tuesday":"12:35-12:45","wednesday":"12:35-12:45","thursday":"12:35-12:45","friday":"12:35-12:45","saturday":"12:35-12:45","sunday":"12:35-12:45","branch":"205"},{"id":"206","Transit":"378","region":"WOR","name":"GRAND MARAIS","address":"1550 Grand Marais Rd W","city":"WINDSOR","prov":"ON","postal":"N9E4L1","lat":"42.2673222","lon":"-83.0277112","monday":"12:35-12:45","tuesday":"12:35-12:45","wednesday":"12:35-12:45","thursday":"12:35-12:45","friday":"12:35-12:45","saturday":"12:35-12:45","sunday":"12:35-12:45","branch":"206"},{"id":"207","Transit":"379","region":"PRA","name":"HENDERSON HWY. & OAKLAND","address":"1128 Henderson Hwy.","city":"WINNIPEG","prov":"MB","postal":"R2G3Z7","lat":"49.9391747","lon":"-97.0918678","monday":"12:35-12:45","tuesday":"12:35-12:45","wednesday":"12:35-12:45","thursday":"12:35-12:45","friday":"12:35-12:45","saturday":"12:35-12:45","sunday":"12:35-12:45","branch":"207"},{"id":"208","Transit":"391","region":"GTA","name":"STEVENSON","address":"22 Stevenson Rd S","city":"OSHAWA","prov":"ON","postal":"L1J5L9","lat":"43.8930872","lon":"-78.8833936","monday":"12:35-12:45","tuesday":"12:35-12:45","wednesday":"12:35-12:45","thursday":"12:35-12:45","friday":"12:35-12:45","saturday":"12:35-12:45","sunday":"12:35-12:45","branch":"208"},{"id":"209","Transit":"392","region":"GTA","name":"QUEEN EAST & LEE (Beaches)","address":"2044 Queen St East","city":"TORONTO","prov":"ON","postal":"M4E1C9","lat":"43.6704906","lon":"-79.2979319","monday":"12:35-12:45","tuesday":"12:35-12:45","wednesday":"12:35-12:45","thursday":"12:35-12:45","friday":"12:35-12:45","saturday":"12:35-12:45","sunday":"12:35-12:45","branch":"209"},{"id":"210","Transit":"393","region":"PAC","name":"EAST HASTINGS & MADISON","address":"4298 East Hastings St","city":"BURNABY","prov":"BC","postal":"V5C2J6","lat":"49.2809113","lon":"-123.008841","monday":"12:35-12:45","tuesday":"12:35-12:45","wednesday":"12:35-12:45","thursday":"12:35-12:45","friday":"12:35-12:45","saturday":"12:35-12:45","sunday":"12:35-12:45","branch":"210"},{"id":"211","Transit":"395","region":"WOR","name":"HIGHLAND HILLS MALL","address":"875 Highland Road West","city":"KITCHENER","prov":"ON","postal":"N2N2Y2","lat":"43.4296985","lon":"-80.5268353","monday":"12:35-12:45","tuesday":"12:35-12:45","wednesday":"12:35-12:45","thursday":"12:35-12:45","friday":"12:35-12:45","saturday":"12:35-12:45","sunday":"12:35-12:45","branch":"211"},{"id":"212","Transit":"397","region":"PRA","name":"MACLEOD TRAIL & HERITAGE","address":"8330 Macleod Trail Se","city":"CALGARY","prov":"AB","postal":"T2H2V2","lat":"50.9784014","lon":"-114.071481","monday":"12:35-12:45","tuesday":"12:35-12:45","wednesday":"12:35-12:45","thursday":"12:35-12:45","friday":"12:35-12:45","saturday":"12:35-12:45","sunday":"12:35-12:45","branch":"212"},{"id":"213","Transit":"398","region":"COR","name":"2221 LAKESHORE W","address":"2221 Lakeshore W","city":"OAKVILLE","prov":"ON","postal":"L6L1H1","lat":"43.4000364","lon":"-79.7055097","monday":"12:35-12:45","tuesday":"12:35-12:45","wednesday":"12:35-12:45","thursday":"12:35-12:45","friday":"12:35-12:45","saturday":"12:35-12:45","sunday":"12:35-12:45","branch":"213"},{"id":"214","Transit":"399","region":"PRA","name":"MCPHILLPS & MAPLE GLEN","address":"1375 McPhillps St, Unit 7","city":"WINNIPEG","prov":"MB","postal":"R2V3V1","lat":"49.9404607","lon":"-97.1588573","monday":"12:35-12:45","tuesday":"12:35-12:45","wednesday":"12:35-12:45","thursday":"12:35-12:45","friday":"12:35-12:45","saturday":"12:35-12:45","sunday":"12:35-12:45","branch":"214"},{"id":"215","Transit":"500","region":"GTA","name":"CANADA TRUST TOWER BCE PLACE","address":"161 Bay St","city":"TORONTO","prov":"ON","postal":"M5J2T2","lat":"43.6464758","lon":"-79.3790009","monday":"12:35-12:45","tuesday":"12:35-12:45","wednesday":"12:35-12:45","thursday":"12:35-12:45","friday":"12:35-12:45","saturday":"12:35-12:45","sunday":"12:35-12:45","branch":"215"},{"id":"216","Transit":"501","region":"PRA","name":"CORYDON & WILTON","address":"1114 Corydon Ave","city":"WINNIPEG","prov":"MB","postal":"R3M0Y9","lat":"49.8659438","lon":"-97.1679258","monday":"12:35-12:45","tuesday":"12:35-12:45","wednesday":"12:35-12:45","thursday":"12:35-12:45","friday":"12:35-12:45","saturday":"12:35-12:45","sunday":"12:35-12:45","branch":"216"},{"id":"217","Transit":"502","region":"ATL","name":"ELIZABETH & NEW COVE","address":"80 Elizabeth Ave","city":"ST. JOHN'S","prov":"NL","postal":"A1A1W7","lat":"47.5833614","lon":"-52.710737","monday":"12:35-12:45","tuesday":"12:35-12:45","wednesday":"12:35-12:45","thursday":"12:35-12:45","friday":"12:35-12:45","saturday":"12:35-12:45","sunday":"12:35-12:45","branch":"217"},{"id":"218","Transit":"503","region":"WOR","name":"INGERSOLL","address":"195 Thames St S","city":"INGERSOLL","prov":"ON","postal":"N5C2T6","lat":"43.0370288","lon":"-80.88112","monday":"12:35-12:45","tuesday":"12:35-12:45","wednesday":"12:35-12:45","thursday":"12:35-12:45","friday":"12:35-12:45","saturday":"12:35-12:45","sunday":"12:35-12:45","branch":"218"},{"id":"219","Transit":"505","region":"WOR","name":"MANNING & TECUMSEH","address":"13300 Tecumseh Rd E","city":"WINDSOR","prov":"ON","postal":"N8N4R8","lat":"42.3125041","lon":"-82.8702893","monday":"12:35-12:45","tuesday":"12:35-12:45","wednesday":"12:35-12:45","thursday":"12:35-12:45","friday":"12:35-12:45","saturday":"12:35-12:45","sunday":"12:35-12:45","branch":"219"},{"id":"220","Transit":"506","region":"COR","name":"AURORA","address":"14845 Yonge St","city":"AURORA","prov":"ON","postal":"L4G6H8","lat":"43.9904251","lon":"-79.4653494","monday":"12:35-12:45","tuesday":"12:35-12:45","wednesday":"12:35-12:45","thursday":"12:35-12:45","friday":"12:35-12:45","saturday":"12:35-12:45","sunday":"12:35-12:45","branch":"220"},{"id":"221","Transit":"507","region":"GTA","name":"FOREST HILL VILLAGE","address":"443 Spadina Road","city":"TORONTO","prov":"ON","postal":"M5P2W3","lat":"43.689373","lon":"-79.412826","monday":"12:35-12:45","tuesday":"12:35-12:45","wednesday":"12:35-12:45","thursday":"12:35-12:45","friday":"12:35-12:45","saturday":"12:35-12:45","sunday":"12:35-12:45","branch":"221"},{"id":"222","Transit":"510","region":"WOR","name":"POND MILLS","address":"1086 Commisionrs Rd E","city":"LONDON","prov":"ON","postal":"N5Z4W8","lat":"42.961604","lon":"-81.2005706","monday":"12:35-12:45","tuesday":"12:35-12:45","wednesday":"12:35-12:45","thursday":"12:35-12:45","friday":"12:35-12:45","saturday":"12:35-12:45","sunday":"12:35-12:45","branch":"222"},{"id":"223","Transit":"511","region":"QUE","name":"BROSSARD LAPINIERE","address":"2220 Boul Lapiniere","city":"BROSSARD","prov":"QC","postal":"J4W1M2","lat":"45.4734495","lon":"-73.4698488","monday":"12:35-12:45","tuesday":"12:35-12:45","wednesday":"12:35-12:45","thursday":"12:35-12:45","friday":"12:35-12:45","saturday":"12:35-12:45","sunday":"12:35-12:45","branch":"223"},{"id":"224","Transit":"512","region":"PRA","name":"CORYDON & EDGELAND","address":"2030 Corydon Ave","city":"WINNIPEG","prov":"MB","postal":"R3P0N2","lat":"49.8661594","lon":"-97.2114998","monday":"12:35-12:45","tuesday":"12:35-12:45","wednesday":"12:35-12:45","thursday":"12:35-12:45","friday":"12:35-12:45","saturday":"12:35-12:45","sunday":"12:35-12:45","branch":"224"},{"id":"225","Transit":"513","region":"ONE","name":"HOLLAND CROSS PLAZA","address":"1620 Scott Street","city":"OTTAWA","prov":"ON","postal":"K1Y4S7","lat":"45.4036727","lon":"-75.7340388","monday":"12:35-12:45","tuesday":"12:35-12:45","wednesday":"12:35-12:45","thursday":"12:35-12:45","friday":"12:35-12:45","saturday":"12:35-12:45","sunday":"12:35-12:45","branch":"225"},{"id":"226","Transit":"514","region":"WOR","name":"REEDMERE & WYANDOTTE","address":"5790 Wyandotte St E.","city":"WINDSOR","prov":"ON","postal":"N8S1M5","lat":"42.3287972","lon":"-82.9675481","monday":"12:35-12:45","tuesday":"12:35-12:45","wednesday":"12:35-12:45","thursday":"12:35-12:45","friday":"12:35-12:45","saturday":"12:35-12:45","sunday":"12:35-12:45","branch":"226"},{"id":"227","Transit":"515","region":"QUE","name":"NDG","address":"6100 Rue Sherbrooke O","city":"MONTREAL","prov":"QC","postal":"H4A1Y3","lat":"45.4675363","lon":"-73.6212552","monday":"12:35-12:45","tuesday":"12:35-12:45","wednesday":"12:35-12:45","thursday":"12:35-12:45","friday":"12:35-12:45","saturday":"12:35-12:45","sunday":"12:35-12:45","branch":"227"},{"id":"228","Transit":"516","region":"WOR","name":"ERAMOSA & STEVENSON","address":"350 Eramosa Rd","city":"GUELPH","prov":"ON","postal":"N1E2M9","lat":"43.5604542","lon":"-80.2490016","monday":"12:35-12:45","tuesday":"12:35-12:45","wednesday":"12:35-12:45","thursday":"12:35-12:45","friday":"12:35-12:45","saturday":"12:35-12:45","sunday":"12:35-12:45","branch":"228"},{"id":"229","Transit":"519","region":"WOR","name":"GODERICH","address":"39 Victoria St S","city":"GODERICH","prov":"ON","postal":"N7A3H4","lat":"43.7416571","lon":"-81.7075434","monday":"12:35-12:45","tuesday":"12:35-12:45","wednesday":"12:35-12:45","thursday":"12:35-12:45","friday":"12:35-12:45","saturday":"12:35-12:45","sunday":"12:35-12:45","branch":"229"},{"id":"230","Transit":"521","region":"COR","name":"QUEEN ST S & TANNERY","address":"168 Queen St S","city":"MISSISSAUGA","prov":"ON","postal":"L5M1K8","lat":"43.5819974","lon":"-79.7141469","monday":"12:35-12:45","tuesday":"12:35-12:45","wednesday":"12:35-12:45","thursday":"12:35-12:45","friday":"12:35-12:45","saturday":"12:35-12:45","sunday":"12:35-12:45","branch":"230"},{"id":"231","Transit":"522","region":"GTA","name":"GLENCAIRN & BATHURST","address":"500 Glencairn Ave","city":"TORONTO","prov":"ON","postal":"M6B1Z1","lat":"43.7121462","lon":"-79.4289716","monday":"12:35-12:45","tuesday":"12:35-12:45","wednesday":"12:35-12:45","thursday":"12:35-12:45","friday":"12:35-12:45","saturday":"12:35-12:45","sunday":"12:35-12:45","branch":"231"},{"id":"232","Transit":"524","region":"WOR","name":"OTTAWA & MOY","address":"1407 Ottawa St.","city":"WINDSOR","prov":"ON","postal":"N8X2G1","lat":"42.3102661","lon":"-83.0111182","monday":"12:35-12:45","tuesday":"12:35-12:45","wednesday":"12:35-12:45","thursday":"12:35-12:45","friday":"12:35-12:45","saturday":"12:35-12:45","sunday":"12:35-12:45","branch":"232"},{"id":"233","Transit":"525","region":"QUE","name":"ROXBORO","address":"4499 Boul Des Sources","city":"ROXBORO","prov":"QC","postal":"H8Y3C1","lat":"45.4982138","lon":"-73.8115364","monday":"12:35-12:45","tuesday":"12:35-12:45","wednesday":"12:35-12:45","thursday":"12:35-12:45","friday":"12:35-12:45","saturday":"12:35-12:45","sunday":"12:35-12:45","branch":"233"},{"id":"234","Transit":"526","region":"GTA","name":"RITSON","address":"1211 Ritson Rd N","city":"OSHAWA","prov":"ON","postal":"L1G8B9","lat":"43.9318769","lon":"-78.867502","monday":"12:35-12:45","tuesday":"12:35-12:45","wednesday":"12:35-12:45","thursday":"12:35-12:45","friday":"12:35-12:45","saturday":"12:35-12:45","sunday":"12:35-12:45","branch":"234"},{"id":"235","Transit":"527","region":"QUE","name":"MONTREAL DE MAISONNEUVE","address":"999 De Maisonneuve Blvd","city":"MONTREAL","prov":"QC","postal":"H3A3L4","lat":"45.5018995","lon":"-73.5738654","monday":"12:35-12:45","tuesday":"12:35-12:45","wednesday":"12:35-12:45","thursday":"12:35-12:45","friday":"12:35-12:45","saturday":"12:35-12:45","sunday":"12:35-12:45","branch":"235"},{"id":"236","Transit":"530","region":"QUE","name":"ST-LAURENT O'BRIEN","address":"1825 O'Brien Boul","city":"ST-LAURENT","prov":"QC","postal":"H4L3W6","lat":"45.5235515","lon":"-73.6923769","monday":"12:35-12:45","tuesday":"12:35-12:45","wednesday":"12:35-12:45","thursday":"12:35-12:45","friday":"12:35-12:45","saturday":"12:35-12:45","sunday":"12:35-12:45","branch":"236"},{"id":"237","Transit":"531","region":"COR","name":"THORNHILL STEELES","address":"1-100 Steeles Ave W","city":"THORNHILL","prov":"ON","postal":"L4J7Y1","lat":"43.7977965","lon":"-79.4254708","monday":"12:35-12:45","tuesday":"12:35-12:45","wednesday":"12:35-12:45","thursday":"12:35-12:45","friday":"12:35-12:45","saturday":"12:35-12:45","sunday":"12:35-12:45","branch":"237"},{"id":"238","Transit":"532","region":"COR","name":"KENNEDY & STEELES","address":"7077 Kennedy Road","city":"MARKHAM","prov":"ON","postal":"L3R0N8","lat":"43.8249794","lon":"-79.3075575","monday":"12:35-12:45","tuesday":"12:35-12:45","wednesday":"12:35-12:45","thursday":"12:35-12:45","friday":"12:35-12:45","saturday":"12:35-12:45","sunday":"12:35-12:45","branch":"238"},{"id":"239","Transit":"533","region":"ONE","name":"BANK & HUNT CLUB","address":"2470 Bank St","city":"OTTAWA","prov":"ON","postal":"K1V8S2","lat":"45.3534299","lon":"-75.6456782","monday":"12:35-12:45","tuesday":"12:35-12:45","wednesday":"12:35-12:45","thursday":"12:35-12:45","friday":"12:35-12:45","saturday":"12:35-12:45","sunday":"12:35-12:45","branch":"239"},{"id":"240","Transit":"535","region":"COR","name":"254 LAKESHORE RD W","address":"254 Lakeshore Rd W","city":"MISSISSAUGA","prov":"ON","postal":"L5H1G6","lat":"43.545803","lon":"-79.5922417","monday":"12:35-12:45","tuesday":"12:35-12:45","wednesday":"12:35-12:45","thursday":"12:35-12:45","friday":"12:35-12:45","saturday":"12:35-12:45","sunday":"12:35-12:45","branch":"240"},{"id":"241","Transit":"536","region":"GTA","name":"AJAX WESTNEY","address":"15 Westney Rd N","city":"AJAX","prov":"ON","postal":"L1T1P4","lat":"43.8592774","lon":"-79.0408265","monday":"12:35-12:45","tuesday":"12:35-12:45","wednesday":"12:35-12:45","thursday":"12:35-12:45","friday":"12:35-12:45","saturday":"12:35-12:45","sunday":"12:35-12:45","branch":"241"},{"id":"242","Transit":"537","region":"ATL","name":"1475 BEDFORD HWY.","address":"1475 Bedford Hwy.","city":"BEDFORD","prov":"NS","postal":"B4A3Z5","lat":"44.7307269","lon":"-63.6613396","monday":"12:35-12:45","tuesday":"12:35-12:45","wednesday":"12:35-12:45","thursday":"12:35-12:45","friday":"12:35-12:45","saturday":"12:35-12:45","sunday":"12:35-12:45","branch":"242"},{"id":"243","Transit":"538","region":"GTA","name":"LAKESHORE & MIMICO","address":"2472 Lakeshore Blvd W","city":"ETOBICOKE","prov":"ON","postal":"M8V1C9","lat":"43.613144","lon":"-79.4898577","monday":"12:35-12:45","tuesday":"12:35-12:45","wednesday":"12:35-12:45","thursday":"12:35-12:45","friday":"12:35-12:45","saturday":"12:35-12:45","sunday":"12:35-12:45","branch":"243"},{"id":"244","Transit":"540","region":"GTA","name":"PAPE AVE & FLOYD","address":"991 Pape Ave","city":"TORONTO","prov":"ON","postal":"M4K3V6","lat":"43.6873566","lon":"-79.3480328","monday":"12:35-12:45","tuesday":"12:35-12:45","wednesday":"12:35-12:45","thursday":"12:35-12:45","friday":"12:35-12:45","saturday":"12:35-12:45","sunday":"12:35-12:45","branch":"244"},{"id":"245","Transit":"541","region":"PRA","name":"ORDZE & WYE","address":"139 Ordze Ave","city":"SHERWOOD PARK","prov":"AB","postal":"T8B1M6","lat":"53.511662","lon":"-113.327081","monday":"12:35-12:45","tuesday":"12:35-12:45","wednesday":"12:35-12:45","thursday":"12:35-12:45","friday":"12:35-12:45","saturday":"12:35-12:45","sunday":"12:35-12:45","branch":"245"},{"id":"246","Transit":"542","region":"COR","name":"NEWMARKET 404","address":"1155 Davis Dr","city":"NEWMARKET","prov":"ON","postal":"L3Y7V1","lat":"44.0667287","lon":"-79.4285989","monday":"12:35-12:45","tuesday":"12:35-12:45","wednesday":"12:35-12:45","thursday":"12:35-12:45","friday":"12:35-12:45","saturday":"12:35-12:45","sunday":"12:35-12:45","branch":"246"},{"id":"247","Transit":"543","region":"GTA","name":"RONCESVALLES & MARMADUKE","address":"382 Roncesvalles Ave","city":"TORONTO","prov":"ON","postal":"M6R2M9","lat":"43.6505932","lon":"-79.4508373","monday":"12:35-12:45","tuesday":"12:35-12:45","wednesday":"12:35-12:45","thursday":"12:35-12:45","friday":"12:35-12:45","saturday":"12:35-12:45","sunday":"12:35-12:45","branch":"247"},{"id":"248","Transit":"545","region":"GTA","name":"AJAX BAYLY","address":"75 Bayly St W","city":"AJAX","prov":"ON","postal":"L1S7K7","lat":"43.8428149","lon":"-79.0213189","monday":"12:35-12:45","tuesday":"12:35-12:45","wednesday":"12:35-12:45","thursday":"12:35-12:45","friday":"12:35-12:45","saturday":"12:35-12:45","sunday":"12:35-12:45","branch":"248"},{"id":"249","Transit":"547","region":"PAC","name":"13650 72ND AVE.","address":"13650 72nd Ave","city":"SURREY","prov":"BC","postal":"V3W2P3","lat":"49.1334168","lon":"-122.843724","monday":"12:35-12:45","tuesday":"12:35-12:45","wednesday":"12:35-12:45","thursday":"12:35-12:45","friday":"12:35-12:45","saturday":"12:35-12:45","sunday":"12:35-12:45","branch":"249"},{"id":"250","Transit":"556","region":"PAC","name":"1995 KINGSWAY & VICTORIA","address":"1995 Kingsway","city":"VANCOUVER","prov":"BC","postal":"V5N2T1","lat":"49.2454942","lon":"-123.065589","monday":"12:35-12:45","tuesday":"12:35-12:45","wednesday":"12:35-12:45","thursday":"12:35-12:45","friday":"12:35-12:45","saturday":"12:35-12:45","sunday":"12:35-12:45","branch":"250"},{"id":"251","Transit":"558","region":"QUE","name":"ST. LEONARD","address":"5070 Rue Jean-Talon E.","city":"ST. LEONARD","prov":"QC","postal":"H1S1K6","lat":"45.576189","lon":"-73.5836518","monday":"12:35-12:45","tuesday":"12:35-12:45","wednesday":"12:35-12:45","thursday":"12:35-12:45","friday":"12:35-12:45","saturday":"12:35-12:45","sunday":"12:35-12:45","branch":"251"},{"id":"252","Transit":"559","region":"PRA","name":"RIVERBEND SQ-TERWILGINGER","address":"490 Riverbend Rd","city":"EDMONTON","prov":"AB","postal":"T6R2E3","lat":"53.4943912","lon":"-113.578199","monday":"12:35-12:45","tuesday":"12:35-12:45","wednesday":"12:35-12:45","thursday":"12:35-12:45","friday":"12:35-12:45","saturday":"12:35-12:45","sunday":"12:35-12:45","branch":"252"},{"id":"253","Transit":"563","region":"ONE","name":"INNES RD & 10TH LINE","address":"4422 Innes Rd","city":"ORLEANS","prov":"ON","postal":"K4A3W3","lat":"45.46044","lon":"-75.4884955","monday":"12:35-12:45","tuesday":"12:35-12:45","wednesday":"12:35-12:45","thursday":"12:35-12:45","friday":"12:35-12:45","saturday":"12:35-12:45","sunday":"12:35-12:45","branch":"253"},{"id":"254","Transit":"564","region":"COR","name":"TRAFALGAR & HWY #5","address":"2325 Trafalgar Road","city":"OAKVILLE","prov":"ON","postal":"L6H6N9","lat":"43.4827396","lon":"-79.7124694","monday":"12:35-12:45","tuesday":"12:35-12:45","wednesday":"12:35-12:45","thursday":"12:35-12:45","friday":"12:35-12:45","saturday":"12:35-12:45","sunday":"12:35-12:45","branch":"254"},{"id":"255","Transit":"566","region":"PAC","name":"FRASER ST & 49TH","address":"6499 Fraser St","city":"VANCOUVER","prov":"BC","postal":"V5W3A6","lat":"49.2255074","lon":"-123.090764","monday":"12:35-12:45","tuesday":"12:35-12:45","wednesday":"12:35-12:45","thursday":"12:35-12:45","friday":"12:35-12:45","saturday":"12:35-12:45","sunday":"12:35-12:45","branch":"255"},{"id":"256","Transit":"568","region":"PAC","name":"W BROADWAY & WILLOW","address":"805 West Broadway","city":"VANCOUVER","prov":"BC","postal":"V5Z1K1","lat":"49.2633343","lon":"-123.121937","monday":"12:35-12:45","tuesday":"12:35-12:45","wednesday":"12:35-12:45","thursday":"12:35-12:45","friday":"12:35-12:45","saturday":"12:35-12:45","sunday":"12:35-12:45","branch":"256"},{"id":"257","Transit":"569","region":"COR","name":"RICHMOND HILL CROSBY","address":"10395 Yonge St","city":"RICHMOND HILL","prov":"ON","postal":"L4C3C2","lat":"43.8808246","lon":"-79.4392718","monday":"12:35-12:45","tuesday":"12:35-12:45","wednesday":"12:35-12:45","thursday":"12:35-12:45","friday":"12:35-12:45","saturday":"12:35-12:45","sunday":"12:35-12:45","branch":"257"},{"id":"258","Transit":"571","region":"GTA","name":"ST. CLAIR & WINONA","address":"870 St. Clair Ave W","city":"TORONTO","prov":"ON","postal":"M6C1C1","lat":"43.6804507","lon":"-79.4323918","monday":"12:35-12:45","tuesday":"12:35-12:45","wednesday":"12:35-12:45","thursday":"12:35-12:45","friday":"12:35-12:45","saturday":"12:35-12:45","sunday":"12:35-12:45","branch":"258"},{"id":"259","Transit":"573","region":"GTA","name":"EVANS & WEST MALL","address":"689 Evans Ave","city":"ETOBICOKE","prov":"ON","postal":"M9C1A2","lat":"43.6086553","lon":"-79.5565802","monday":"12:35-12:45","tuesday":"12:35-12:45","wednesday":"12:35-12:45","thursday":"12:35-12:45","friday":"12:35-12:45","saturday":"12:35-12:45","sunday":"12:35-12:45","branch":"259"},{"id":"260","Transit":"574","region":"PAC","name":"TOWN CENTRE MALL","address":"1323 56th St","city":"TSAWWASSEN","prov":"BC","postal":"V4L2A6","lat":"49.0274502","lon":"-123.068732","monday":"12:35-12:45","tuesday":"12:35-12:45","wednesday":"12:35-12:45","thursday":"12:35-12:45","friday":"12:35-12:45","saturday":"12:35-12:45","sunday":"12:35-12:45","branch":"260"},{"id":"261","Transit":"575","region":"GTA","name":"ST. CLAIR & O'CONNOR","address":"801 O'Connor Dr","city":"EAST YORK","prov":"ON","postal":"M4B2S7","lat":"43.7056918","lon":"-79.3125165","monday":"12:35-12:45","tuesday":"12:35-12:45","wednesday":"12:35-12:45","thursday":"12:35-12:45","friday":"12:35-12:45","saturday":"12:35-12:45","sunday":"12:35-12:45","branch":"261"},{"id":"262","Transit":"577","region":"ONE","name":"KILBORN AVE & VIRGINIA","address":"1785 Kilborn Ave","city":"OTTAWA","prov":"ON","postal":"K1H6N1","lat":"45.3880004","lon":"-75.6456957","monday":"12:35-12:45","tuesday":"12:35-12:45","wednesday":"12:35-12:45","thursday":"12:35-12:45","friday":"12:35-12:45","saturday":"12:35-12:45","sunday":"12:35-12:45","branch":"262"},{"id":"263","Transit":"593","region":"COR","name":"SOUTHDOWN & ROYAL WINDSOR","address":"1052 Southdown Rd","city":"MISSISSAUGA","prov":"ON","postal":"L5J2Y8","lat":"43.5117536","lon":"-79.6316008","monday":"12:35-12:45","tuesday":"12:35-12:45","wednesday":"12:35-12:45","thursday":"12:35-12:45","friday":"12:35-12:45","saturday":"12:35-12:45","sunday":"12:35-12:45","branch":"263"},{"id":"264","Transit":"594","region":"PAC","name":"NANAIMO","address":"5777 Turner Rd, Unit 1","city":"NANAIMO","prov":"BC","postal":"V9T6L8","lat":"49.2254833","lon":"-124.035605","monday":"12:35-12:45","tuesday":"12:35-12:45","wednesday":"12:35-12:45","thursday":"12:35-12:45","friday":"12:35-12:45","saturday":"12:35-12:45","sunday":"12:35-12:45","branch":"264"},{"id":"265","Transit":"595","region":"PRA","name":"DEER RIDGE","address":"14927 Deer Ridge Dr Se","city":"CALGARY","prov":"AB","postal":"T2J7C4","lat":"50.9303181","lon":"-114.027105","monday":"12:35-12:45","tuesday":"12:35-12:45","wednesday":"12:35-12:45","thursday":"12:35-12:45","friday":"12:35-12:45","saturday":"12:35-12:45","sunday":"12:35-12:45","branch":"265"},{"id":"266","Transit":"596","region":"ONE","name":"PETER & COLDWATER","address":"39 Peter St N","city":"ORILLIA","prov":"ON","postal":"L3V4Y8","lat":"44.6100624","lon":"-79.4188968","monday":"12:35-12:45","tuesday":"12:35-12:45","wednesday":"12:35-12:45","thursday":"12:35-12:45","friday":"12:35-12:45","saturday":"12:35-12:45","sunday":"12:35-12:45","branch":"266"},{"id":"267","Transit":"606","region":"ONE","name":"PETERBOROUGH LANSDOWNE ","address":"1096 Lansdowne St W","city":"PETERBOROUGH","prov":"ON","postal":"K9J1Z9","lat":"44.2820247","lon":"-78.348028","monday":"12:35-12:45","tuesday":"12:35-12:45","wednesday":"12:35-12:45","thursday":"12:35-12:45","friday":"12:35-12:45","saturday":"12:35-12:45","sunday":"12:35-12:45","branch":"267"},{"id":"268","Transit":"607","region":"GTA","name":"EGLINTON WEST & SHORT","address":"1886 Eglinton Ave W","city":"TORONTO","prov":"ON","postal":"M6E2J6","lat":"43.6955539","lon":"-79.4517236","monday":"12:35-12:45","tuesday":"12:35-12:45","wednesday":"12:35-12:45","thursday":"12:35-12:45","friday":"12:35-12:45","saturday":"12:35-12:45","sunday":"12:35-12:45","branch":"268"},{"id":"269","Transit":"608","region":"PRA","name":"CASTLERIDGE","address":"109-77 Castleridge Blvd. N.E.","city":"CALGARY","prov":"AB","postal":"T3J3J8","lat":"51.100506","lon":"-113.962147","monday":"12:35-12:45","tuesday":"12:35-12:45","wednesday":"12:35-12:45","thursday":"12:35-12:45","friday":"12:35-12:45","saturday":"12:35-12:45","sunday":"12:35-12:45","branch":"269"},{"id":"270","Transit":"640","region":"COR","name":"THORNHILL CENTRE","address":"1054 Centre St","city":"THORNHILL","prov":"ON","postal":"L4J3M8","lat":"43.8091626","lon":"-79.4605977","monday":"12:35-12:45","tuesday":"12:35-12:45","wednesday":"12:35-12:45","thursday":"12:35-12:45","friday":"12:35-12:45","saturday":"12:35-12:45","sunday":"12:35-12:45","branch":"270"},